{"index":{"_index":"hotel", "_id":"1"}}
{"name":"강릉 센트럴","location": {"lon": 128.89638159999998, "lat": 37.75757091},"area":"강원도","type":"MOTEL","address":"강원 강릉시 옥천동 176-4"}
{"index":{"_index":"hotel", "_id":"2"}}
{"name":"경포대 러블리","location": {"lon": 128.9027618, "lat": 37.80674747},"area":"강원도","type":"MOTEL","address":"강원 강릉시 안현동 857-6"}
{"index":{"_index":"hotel", "_id":"3"}}
{"name":"경포대 코아","location": {"lon": 128.9127358, "lat": 37.79973235},"area":"강원도","type":"MOTEL","address":"강원 강릉시 강문동 302-4"}
{"index":{"_index":"hotel", "_id":"4"}}
{"name":"경포대 쏠하우스","location": {"lon": 128.8938781, "lat": 37.81420185},"area":"강원도","type":"MOTEL","address":"강원 강릉시 안현동 224-39"}
{"index":{"_index":"hotel", "_id":"5"}}
{"name":"강릉 라메르","location": {"lon": 128.8777146, "lat": 37.82914433},"area":"강원도","type":"MOTEL","address":"강원 강릉시 사천면 방동리 68-1"}
{"index":{"_index":"hotel", "_id":"6"}}
{"name":"정동진 호텔 탑스빌","location": {"lon": 129.0365496, "lat": 37.68551079},"area":"강원도","type":"MOTEL","address":"강원 강릉시 강동면 정동진리 27-3"}
{"index":{"_index":"hotel", "_id":"7"}}
{"name":"강릉 메인","location": {"lon": 129.0390644, "lat": 37.61320937},"area":"강원도","type":"MOTEL","address":"강원 강릉시 옥계면 현내리 241-1"}
{"index":{"_index":"hotel", "_id":"8"}}
{"name":"경포대 스타비치","location": {"lon": 128.912453, "lat": 37.80038554},"area":"강원도","type":"MOTEL","address":"강원 강릉시 강문동 302-1"}
{"index":{"_index":"hotel", "_id":"9"}}
{"name":"강릉 스케치","location": {"lon": 128.8990043, "lat": 37.75914657},"area":"강원도","type":"MOTEL","address":"강원 강릉시 옥천동 281-3"}
{"index":{"_index":"hotel", "_id":"10"}}
{"name":"경포대 파라다이스","location": {"lon": 128.9222571, "lat": 37.7900393},"area":"강원도","type":"MOTEL","address":"강원 강릉시 강문동 308-2"}
{"index":{"_index":"hotel", "_id":"11"}}
{"name":"경포대 타임","location": {"lon": 128.9123164, "lat": 37.80054991},"area":"강원도","type":"MOTEL","address":"강원 강릉시 강문동 302"}
{"index":{"_index":"hotel", "_id":"12"}}
{"name":"경포대 이사벨","location": {"lon": 128.902517, "lat": 37.80818195},"area":"강원도","type":"MOTEL","address":"강원 강릉시 안현동 856"}
{"index":{"_index":"hotel", "_id":"13"}}
{"name":"경포대 굿모닝","location": {"lon": 128.9220671, "lat": 37.79024058},"area":"강원도","type":"MOTEL","address":"강원 강릉시 강문동 308-1"}
{"index":{"_index":"hotel", "_id":"14"}}
{"name":"정동진 다빈치","location": {"lon": 129.0419192, "lat": 37.68290999},"area":"강원도","type":"MOTEL","address":"강원 강릉시 강동면 정동진리 50-27"}
{"index":{"_index":"hotel", "_id":"15"}}
{"name":"동해 SM","location": {"lon": 129.117026, "lat": 37.51877229},"area":"강원도","type":"MOTEL","address":"강원 동해시 천곡동 900"}
{"index":{"_index":"hotel", "_id":"16"}}
{"name":"오산 몽","location": {"lon": 127.0692086, "lat": 37.148219},"area":"경기도","type":"MOTEL","address":"경기 오산시 오산동 877-24"}
{"index":{"_index":"hotel", "_id":"17"}}
{"name":"동해 리사","location": {"lon": 129.11488889999998, "lat": 37.5231923},"area":"강원도","type":"MOTEL","address":"강원 동해시 천곡동 846"}
{"index":{"_index":"hotel", "_id":"18"}}
{"name":"동해 대주호텔","location": {"lon": 129.1161886, "lat": 37.51987553},"area":"강원도","type":"MOTEL","address":"강원 동해시 천곡동 889"}
{"index":{"_index":"hotel", "_id":"19"}}
{"name":"동해 피그","location": {"lon": 129.1150947, "lat": 37.51942669},"area":"강원도","type":"MOTEL","address":"강원 동해시 천곡동 1016"}
{"index":{"_index":"hotel", "_id":"20"}}
{"name":"동해 피카소","location": {"lon": 129.1168021, "lat": 37.51949338},"area":"강원도","type":"MOTEL","address":"강원 동해시 천곡동 904-1"}
{"index":{"_index":"hotel", "_id":"21"}}
{"name":"속초 필모텔","location": {"lon": 128.597787, "lat": 38.1909569},"area":"강원도","type":"MOTEL","address":"강원 속초시 조양동 1410-5"}
{"index":{"_index":"hotel", "_id":"22"}}
{"name":"속초 칼즈배드","location": {"lon": 128.5649903, "lat": 38.20706577},"area":"강원도","type":"MOTEL","address":"강원 속초시 교동 793-1"}
{"index":{"_index":"hotel", "_id":"23"}}
{"name":"속초 추억","location": {"lon": 128.5896361, "lat": 38.19089461},"area":"강원도","type":"MOTEL","address":"강원 속초시 조양동 1554-3"}
{"index":{"_index":"hotel", "_id":"24"}}
{"name":"속초 버킹검궁","location": {"lon": 128.58035619999998, "lat": 38.19077128},"area":"강원도","type":"MOTEL","address":"강원 속초시 조양동 636-38"}
{"index":{"_index":"hotel", "_id":"25"}}
{"name":"속초 K","location": {"lon": 128.5872556, "lat": 38.20700099},"area":"강원도","type":"MOTEL","address":"강원 속초시 중앙동 501-7"}
{"index":{"_index":"hotel", "_id":"26"}}
{"name":"속초 아이리스","location": {"lon": 128.6007098, "lat": 38.18223681},"area":"강원도","type":"MOTEL","address":"강원 속초시 조양동 1287-9"}
{"index":{"_index":"hotel", "_id":"27"}}
{"name":"동암 피카소","location": {"lon": 126.7021331, "lat": 37.46992982},"area":"인천시/인천광역시","type":"MOTEL","address":"인천 부평구 십정동 동암광장로8번길 24"}
{"index":{"_index":"hotel", "_id":"28"}}
{"name":"수유 메리엘","location": {"lon": 127.021362653, "lat": 37.6348399867},"area":"서울시/서울특별시","type":"MOTEL","address":"서울 강북구 수유동 47-23"}
{"index":{"_index":"hotel", "_id":"29"}}
{"name":"낙산 콘도텔","location": {"lon": 128.6309726, "lat": 38.11899714},"area":"강원도","type":"MOTEL","address":"강원 양양군 강현면 전진리 7-59"}
{"index":{"_index":"hotel", "_id":"30"}}
{"name":"양양 힐하우스","location": {"lon": 128.6128918, "lat": 38.14134583},"area":"강원도","type":"MOTEL","address":"강원 양양군 강현면 정암리 18-15"}
{"index":{"_index":"hotel", "_id":"31"}}
{"name":"인구 파스텔","location": {"lon": 128.76216000000002, "lat": 37.96727431},"area":"강원도","type":"MOTEL","address":"강원 양양군 현남면 인구리 641-5"}
{"index":{"_index":"hotel", "_id":"32"}}
{"name":"양양 오렌지","location": {"lon": 128.6078012, "lat": 38.15490274},"area":"강원도","type":"MOTEL","address":"강원 양양군 강현면 물치리 64"}
{"index":{"_index":"hotel", "_id":"33"}}
{"name":"낙산 비치빌","location": {"lon": 128.63454240000002, "lat": 38.11524694},"area":"강원도","type":"MOTEL","address":"강원 양양군 양양읍 조산리 440-4"}
{"index":{"_index":"hotel", "_id":"34"}}
{"name":"원주 리츠칼튼","location": {"lon": 127.9292432, "lat": 37.3450539},"area":"강원도","type":"MOTEL","address":"강원 원주시 단계동 874-1"}
{"index":{"_index":"hotel", "_id":"35"}}
{"name":"왕십리 버니3","location": {"lon": 127.0348428, "lat": 37.56314672},"area":"서울시/서울특별시","type":"MOTEL","address":"서울 성동구 도선동 116"}
{"index":{"_index":"hotel", "_id":"36"}}
{"name":"원주 첼로","location": {"lon": 127.93149409999998, "lat": 37.34381805},"area":"강원도","type":"MOTEL","address":"강원 원주시 단계동 882-4"}
{"index":{"_index":"hotel", "_id":"37"}}
{"name":"신촌 나인스타","location": {"lon": 126.93806609999999, "lat": 37.55648266},"area":"서울시/서울특별시","type":"MOTEL","address":"서울 서대문구 창천동 29-52"}
{"index":{"_index":"hotel", "_id":"38"}}
{"name":"원주 린비아토","location": {"lon": 127.9468154, "lat": 37.35501653},"area":"강원도","type":"MOTEL","address":"강원 원주시 학성동 329-12"}
{"index":{"_index":"hotel", "_id":"39"}}
{"name":"원주 뉴스카이","location": {"lon": 127.94826780000001, "lat": 37.38396642},"area":"강원도","type":"MOTEL","address":"강원 원주시 태장동 1381-16"}
{"index":{"_index":"hotel", "_id":"40"}}
{"name":"원주 칸","location": {"lon": 127.95786240000001, "lat": 37.32654619},"area":"강원도","type":"MOTEL","address":"강원 원주시 단구동 701-9"}
{"index":{"_index":"hotel", "_id":"41"}}
{"name":"원주 원","location": {"lon": 127.95617539999999, "lat": 37.35794695},"area":"강원도","type":"MOTEL","address":"강원 원주시 태장동 700-19"}
{"index":{"_index":"hotel", "_id":"42"}}
{"name":"원주 헬로무인텔","location": {"lon": 127.9556544, "lat": 37.3578034},"area":"강원도","type":"MOTEL","address":"강원 원주시 태장동 700-42"}
{"index":{"_index":"hotel", "_id":"43"}}
{"name":"원주 로또","location": {"lon": 127.9556544, "lat": 37.3578034},"area":"강원도","type":"MOTEL","address":"강원 원주시 태장동 700-42"}
{"index":{"_index":"hotel", "_id":"44"}}
{"name":"춘천 피아노","location": {"lon": 127.7321504, "lat": 37.86536477},"area":"강원도","type":"MOTEL","address":"강원 춘천시 효자동 712-12"}
{"index":{"_index":"hotel", "_id":"45"}}
{"name":"춘천 리버사이드코지","location": {"lon": 127.6971293, "lat": 37.87059734},"area":"강원도","type":"MOTEL","address":"강원 춘천시 삼천동 산71-22"}
{"index":{"_index":"hotel", "_id":"46"}}
{"name":"춘천 3D시네마","location": {"lon": 127.7293409, "lat": 37.88240619},"area":"강원도","type":"MOTEL","address":"강원 춘천시 옥천동 42-6"}
{"index":{"_index":"hotel", "_id":"47"}}
{"name":"춘천 OST 호텔","location": {"lon": 127.72758999999999, "lat": 37.88236297},"area":"강원도","type":"MOTEL","address":"강원 춘천시 요선동 10-9"}
{"index":{"_index":"hotel", "_id":"48"}}
{"name":"이천 코지","location": {"lon": 127.4720618, "lat": 37.26296422},"area":"경기도","type":"MOTEL","address":"경기 이천시 부발읍 신하리 436-39"}
{"index":{"_index":"hotel", "_id":"49"}}
{"name":"춘천 S쁘띠","location": {"lon": 127.72454009999998, "lat": 37.86946964},"area":"강원도","type":"MOTEL","address":"강원 춘천시 효자동 590-7"}
{"index":{"_index":"hotel", "_id":"50"}}
{"name":"춘천 월드호텔-구 워커힐","location": {"lon": 127.7290405, "lat": 37.88145307},"area":"강원도","type":"MOTEL","address":"강원 춘천시 중앙로1가 62-3"}
{"index":{"_index":"hotel", "_id":"51"}}
{"name":"횡성 코지","location": {"lon": 127.9843489, "lat": 37.49019272},"area":"강원도","type":"MOTEL","address":"강원 횡성군 횡성읍 읍하리 134-19"}
{"index":{"_index":"hotel", "_id":"52"}}
{"name":"고양 작은성","location": {"lon": 126.83702209999998, "lat": 37.65473838},"area":"경기도","type":"MOTEL","address":"경기 고양시 덕양구 성사동 703-5"}
{"index":{"_index":"hotel", "_id":"53"}}
{"name":"일산 아망","location": {"lon": 126.83833390000001, "lat": 37.66231564},"area":"경기도","type":"MOTEL","address":"경기 고양시 덕양구 주교동 568-5"}
{"index":{"_index":"hotel", "_id":"54"}}
{"name":"일산 리비에라","location": {"lon": 126.8318068, "lat": 37.63573114},"area":"경기도","type":"MOTEL","address":"경기 고양시 덕양구 화정동 968-4"}
{"index":{"_index":"hotel", "_id":"55"}}
{"name":"일산 페이지","location": {"lon": 126.83118400000001, "lat": 37.63057301},"area":"경기도","type":"MOTEL","address":"경기 고양시 덕양구 화정동 1002-2"}
{"index":{"_index":"hotel", "_id":"56"}}
{"name":"일산 나이스","location": {"lon": 126.83547079999998, "lat": 37.62438749},"area":"경기도","type":"MOTEL","address":"경기 고양시 덕양구 행신동 945-2"}
{"index":{"_index":"hotel", "_id":"57"}}
{"name":"광명 코림","location": {"lon": 126.85243799999999, "lat": 37.47604084},"area":"경기도","type":"MOTEL","address":"경기 광명시 광명동 288-56"}
{"index":{"_index":"hotel", "_id":"58"}}
{"name":"광명 테마","location": {"lon": 126.85576979999999, "lat": 37.48363505},"area":"경기도","type":"MOTEL","address":"경기 광명시 광명동 94-2"}
{"index":{"_index":"hotel", "_id":"59"}}
{"name":"구리 POP","location": {"lon": 127.13750619999999, "lat": 37.59765551},"area":"경기도","type":"MOTEL","address":"경기 구리시 수택동 378-29"}
{"index":{"_index":"hotel", "_id":"60"}}
{"name":"구리 렉시","location": {"lon": 127.14103909999999, "lat": 37.59758647},"area":"경기도","type":"MOTEL","address":"경기 구리시 수택동 426-8"}
{"index":{"_index":"hotel", "_id":"61"}}
{"name":"구리 THE","location": {"lon": 127.14051409999998, "lat": 37.597861},"area":"경기도","type":"MOTEL","address":"경기 구리시 수택동 427-22"}
{"index":{"_index":"hotel", "_id":"62"}}
{"name":"금정 허브","location": {"lon": 126.94436699999999, "lat": 37.368232},"area":"경기도","type":"MOTEL","address":"경기 군포시 금정동 77-15"}
{"index":{"_index":"hotel", "_id":"63"}}
{"name":"군포 뷰","location": {"lon": 126.94603529999999, "lat": 37.352818},"area":"경기도","type":"MOTEL","address":"경기 군포시 당동 776-1"}
{"index":{"_index":"hotel", "_id":"64"}}
{"name":"산본 CF","location": {"lon": 126.9322875, "lat": 37.3583072},"area":"경기도","type":"MOTEL","address":"경기 군포시 산본동 1142-5"}
{"index":{"_index":"hotel", "_id":"65"}}
{"name":"금정 팔라틴","location": {"lon": 126.9438656, "lat": 37.36842639},"area":"경기도","type":"MOTEL","address":"경기 군포시 금정동 45-7"}
{"index":{"_index":"hotel", "_id":"66"}}
{"name":"금정 맥스","location": {"lon": 126.9438023, "lat": 37.36861377},"area":"경기도","type":"MOTEL","address":"경기 군포시 금정동 43-7"}
{"index":{"_index":"hotel", "_id":"67"}}
{"name":"금정 파티N","location": {"lon": 126.94365259999998, "lat": 37.36339856},"area":"경기도","type":"MOTEL","address":"경기 군포시 금정동 742-8"}
{"index":{"_index":"hotel", "_id":"68"}}
{"name":"금정 센트로","location": {"lon": 126.9444755, "lat": 37.36807347},"area":"경기도","type":"MOTEL","address":"경기 군포시 금정동 77-4"}
{"index":{"_index":"hotel", "_id":"69"}}
{"name":"금정 초콜릿","location": {"lon": 126.94244579999999, "lat": 37.37086929},"area":"경기도","type":"MOTEL","address":"경기 군포시 산본동 252-6"}
{"index":{"_index":"hotel", "_id":"70"}}
{"name":"김포 스카이","location": {"lon": 126.70896840000002, "lat": 37.62867344},"area":"경기도","type":"MOTEL","address":"경기 김포시 북변동 299-46"}
{"index":{"_index":"hotel", "_id":"71"}}
{"name":"부천 호텔K","location": {"lon": 126.7515785, "lat": 37.50682317},"area":"경기도","type":"MOTEL","address":"경기 부천시 원미구 상동 532-14"}
{"index":{"_index":"hotel", "_id":"72"}}
{"name":"부천 리젠시","location": {"lon": 126.7783493, "lat": 37.48303224},"area":"경기도","type":"MOTEL","address":"경기 부천시 소사구 심곡본동 666-1"}
{"index":{"_index":"hotel", "_id":"73"}}
{"name":"부천 캣츠호텔","location": {"lon": 126.78695079999999, "lat": 37.4847852},"area":"경기도","type":"MOTEL","address":"경기 부천시 원미구 심곡동 139-9"}
{"index":{"_index":"hotel", "_id":"74"}}
{"name":"부천 카라","location": {"lon": 126.77569790000001, "lat": 37.4834453},"area":"경기도","type":"MOTEL","address":"경기 부천시 소사구 심곡본동 561-2"}
{"index":{"_index":"hotel", "_id":"75"}}
{"name":"역곡 인플러스","location": {"lon": 126.8136763, "lat": 37.48617107},"area":"경기도","type":"MOTEL","address":"경기 부천시 원미구 역곡동 112-12"}
{"index":{"_index":"hotel", "_id":"76"}}
{"name":"부천 뉴스카이","location": {"lon": 126.7845769, "lat": 37.48461511},"area":"경기도","type":"MOTEL","address":"경기 부천시 원미구 심곡동 171-2"}
{"index":{"_index":"hotel", "_id":"77"}}
{"name":"부천 라망","location": {"lon": 126.78805659999999, "lat": 37.48396547},"area":"경기도","type":"MOTEL","address":"경기 부천시 원미구 심곡동  127-6"}
{"index":{"_index":"hotel", "_id":"78"}}
{"name":"부천 가자","location": {"lon": 126.78586940000001, "lat": 37.48493462},"area":"경기도","type":"MOTEL","address":"경기 부천시 원미구 심곡동 145-14"}
{"index":{"_index":"hotel", "_id":"79"}}
{"name":"부천 필름37.2","location": {"lon": 126.7840078, "lat": 37.48434017},"area":"경기도","type":"MOTEL","address":"경기 부천시 원미구 심곡동 172-16"}
{"index":{"_index":"hotel", "_id":"80"}}
{"name":"성남 MI","location": {"lon": 127.1378212, "lat": 37.43414833},"area":"경기도","type":"MOTEL","address":"경기 성남시 중원구 성남동 2332"}
{"index":{"_index":"hotel", "_id":"81"}}
{"name":"성남 초콜릿","location": {"lon": 127.14472659999998, "lat": 37.44090489},"area":"경기도","type":"MOTEL","address":"경기 성남시 수정구 신흥동 4203"}
{"index":{"_index":"hotel", "_id":"82"}}
{"name":"성남 황토방","location": {"lon": 127.1362222, "lat": 37.43466196},"area":"경기도","type":"MOTEL","address":"경기 성남시 중원구 성남동 2270"}
{"index":{"_index":"hotel", "_id":"83"}}
{"name":"성남 휴플러스","location": {"lon": 127.13578770000001, "lat": 37.43435971},"area":"경기도","type":"MOTEL","address":"경기 성남시 중원구 성남동 2277"}
{"index":{"_index":"hotel", "_id":"84"}}
{"name":"성남 아비숑","location": {"lon": 127.1369033, "lat": 37.43392594},"area":"경기도","type":"MOTEL","address":"경기 성남시 중원구 성남동 2327"}
{"index":{"_index":"hotel", "_id":"85"}}
{"name":"성남 루이스호텔","location": {"lon": 127.1316818, "lat": 37.43316781},"area":"경기도","type":"MOTEL","address":"경기 성남시 중원구 성남동  3253"}
{"index":{"_index":"hotel", "_id":"86"}}
{"name":"성남 에이스","location": {"lon": 127.1436638, "lat": 37.44060705},"area":"경기도","type":"MOTEL","address":"경기 성남시 수정구 신흥동 4502"}
{"index":{"_index":"hotel", "_id":"87"}}
{"name":"신촌 코자-COZA","location": {"lon": 126.93740919999999, "lat": 37.55710941},"area":"서울시/서울특별시","type":"MOTEL","address":"서울 서대문구 창천동 18-72"}
{"index":{"_index":"hotel", "_id":"88"}}
{"name":"성남 호텔 인사이드","location": {"lon": 127.15998390000001, "lat": 37.45471037},"area":"경기도","type":"MOTEL","address":"경기 성남시 수정구 단대동 68-5"}
{"index":{"_index":"hotel", "_id":"89"}}
{"name":"성남 뉴타임","location": {"lon": 127.13116950000001, "lat": 37.43999447},"area":"경기도","type":"MOTEL","address":"경기 성남시 수정구 수진동 2954"}
{"index":{"_index":"hotel", "_id":"90"}}
{"name":"성남 E.JEN","location": {"lon": 127.15006869999999, "lat": 37.44290569},"area":"경기도","type":"MOTEL","address":"경기 성남시 수정구 신흥동 2556"}
{"index":{"_index":"hotel", "_id":"91"}}
{"name":"성남 The Q-더큐","location": {"lon": 127.1432142, "lat": 37.44184019},"area":"경기도","type":"MOTEL","address":"경기 성남시 수정구 신흥동 4517"}
{"index":{"_index":"hotel", "_id":"92"}}
{"name":"성남 소피아","location": {"lon": 127.14080359999998, "lat": 37.43629283},"area":"경기도","type":"MOTEL","address":"경기 성남시 중원구 성남동 2178"}
{"index":{"_index":"hotel", "_id":"93"}}
{"name":"성남 호텔팝콘","location": {"lon": 127.13567809999999, "lat": 37.43371471},"area":"경기도","type":"MOTEL","address":"경기 성남시 중원구 성남동 2295"}
{"index":{"_index":"hotel", "_id":"94"}}
{"name":"성남 렉시","location": {"lon": 127.13710719999999, "lat": 37.43419601},"area":"경기도","type":"MOTEL","address":"경기 성남시 중원구 성남동 2323"}
{"index":{"_index":"hotel", "_id":"95"}}
{"name":"수원역 M","location": {"lon": 127.0063452, "lat": 37.26917805},"area":"경기도","type":"MOTEL","address":"경기 수원시 팔달구 매산로2가 45-1"}
{"index":{"_index":"hotel", "_id":"96"}}
{"name":"수원 MUL","location": {"lon": 127.0159232, "lat": 37.24454983},"area":"경기도","type":"MOTEL","address":"경기 수원시 권선구 세류동 1158-49"}
{"index":{"_index":"hotel", "_id":"97"}}
{"name":"수원 무인텔 노블레스","location": {"lon": 127.03453359999999, "lat": 37.26483377},"area":"경기도","type":"MOTEL","address":"경기 수원시 팔달구 인계동 1115-19"}
{"index":{"_index":"hotel", "_id":"98"}}
{"name":"수원 호텔프라하","location": {"lon": 127.0266176, "lat": 37.25978997},"area":"경기도","type":"MOTEL","address":"경기 수원시 권선구 권선동 1020-14"}
{"index":{"_index":"hotel", "_id":"99"}}
{"name":"수원 THE 별","location": {"lon": 127.0030215, "lat": 37.26917458},"area":"경기도","type":"MOTEL","address":"경기 수원시 팔달구 매산로2가 26-26"}
{"index":{"_index":"hotel", "_id":"100"}}
{"name":"수원역 샤르망","location": {"lon": 127.00776129999998, "lat": 37.27023759},"area":"경기도","type":"MOTEL","address":"경기 수원시 팔달구 매산로2가 4-3"}
{"index":{"_index":"hotel", "_id":"101"}}
{"name":"수원 명작","location": {"lon": 127.00743200000001, "lat": 37.26923565},"area":"경기도","type":"MOTEL","address":"경기 수원시 팔달구 매산로2가 56-5"}
{"index":{"_index":"hotel", "_id":"102"}}
{"name":"수원 베네치아호텔","location": {"lon": 127.02968659999999, "lat": 37.26683539},"area":"경기도","type":"MOTEL","address":"경기 수원시 팔달구 인계동 1034-15"}
{"index":{"_index":"hotel", "_id":"103"}}
{"name":"수원 더모스트","location": {"lon": 127.02973119999999, "lat": 37.26534686},"area":"경기도","type":"MOTEL","address":"경기 수원시 팔달구 인계동 1032-9"}
{"index":{"_index":"hotel", "_id":"104"}}
{"name":"수원 르빌","location": {"lon": 127.031851, "lat": 37.27685801},"area":"경기도","type":"MOTEL","address":"경기 수원시 팔달구 인계동 940-26"}
{"index":{"_index":"hotel", "_id":"105"}}
{"name":"수원 뉴스카이","location": {"lon": 127.0050778, "lat": 37.26759949},"area":"경기도","type":"MOTEL","address":"경기 수원시 팔달구 매산로2가 65-28"}
{"index":{"_index":"hotel", "_id":"106"}}
{"name":"수원 캣츠호텔","location": {"lon": 127.0040497, "lat": 37.26889703},"area":"경기도","type":"MOTEL","address":"경기 수원시 팔달구 매산로2가 27-11"}
{"index":{"_index":"hotel", "_id":"107"}}
{"name":"건대 스타-STAR","location": {"lon": 127.0824374, "lat": 37.5448977},"area":"서울시/서울특별시","type":"MOTEL","address":"서울 광진구 구의동 633-4"}
{"index":{"_index":"hotel", "_id":"108"}}
{"name":"수원 아리오소","location": {"lon": 127.02900759999999, "lat": 37.26010658},"area":"경기도","type":"MOTEL","address":"경기 수원시 권선구 권선동 1013-18"}
{"index":{"_index":"hotel", "_id":"109"}}
{"name":"수원 골든텔","location": {"lon": 127.0297064, "lat": 37.25980726},"area":"경기도","type":"MOTEL","address":"경기 수원시 권선구 권선동 1013-24"}
{"index":{"_index":"hotel", "_id":"110"}}
{"name":"수원 25H","location": {"lon": 127.02832659999999, "lat": 37.25986526},"area":"경기도","type":"MOTEL","address":"경기 수원시 권선구 권선동 1016"}
{"index":{"_index":"hotel", "_id":"111"}}
{"name":"수원 루시","location": {"lon": 127.0267666, "lat": 37.2602729},"area":"경기도","type":"MOTEL","address":"경기 수원시 권선구 권선동 1017-1"}
{"index":{"_index":"hotel", "_id":"112"}}
{"name":"수원 써니플러스","location": {"lon": 127.0276143, "lat": 37.26004204},"area":"경기도","type":"MOTEL","address":"경기 수원시 권선구 권선동 1017-4"}
{"index":{"_index":"hotel", "_id":"113"}}
{"name":"수원 IN","location": {"lon": 127.02876599999999, "lat": 37.26493983},"area":"경기도","type":"MOTEL","address":"경기 수원시 팔달구 인계동 1031-13"}
{"index":{"_index":"hotel", "_id":"114"}}
{"name":"수원 로제호텔","location": {"lon": 127.0349021, "lat": 37.26208728},"area":"경기도","type":"MOTEL","address":"경기 수원시 팔달구 인계동 1122-4"}
{"index":{"_index":"hotel", "_id":"115"}}
{"name":"수원 1박2일","location": {"lon": 127.0313624, "lat": 37.26253158},"area":"경기도","type":"MOTEL","address":"경기 수원시 팔달구 인계동 1046-12"}
{"index":{"_index":"hotel", "_id":"116"}}
{"name":"월곶 나비야","location": {"lon": 126.74045659999999, "lat": 37.39092197},"area":"경기도","type":"MOTEL","address":"경기 시흥시 월곶동 1002-7"}
{"index":{"_index":"hotel", "_id":"117"}}
{"name":"월곶 샤인","location": {"lon": 126.7410429589, "lat": 37.3911827526},"area":"경기도","type":"MOTEL","address":"경기 시흥시 월곶동 1003-14"}
{"index":{"_index":"hotel", "_id":"118"}}
{"name":"수원 아이리스","location": {"lon": 127.0316481, "lat": 37.26633391},"area":"경기도","type":"MOTEL","address":"경기 수원시 팔달구 인계동 1039-3"}
{"index":{"_index":"hotel", "_id":"119"}}
{"name":"월곶 문 호텔","location": {"lon": 126.7402904, "lat": 37.3906513},"area":"경기도","type":"MOTEL","address":"경기 시흥시 월곶동 1002-9"}
{"index":{"_index":"hotel", "_id":"120"}}
{"name":"월곶 호텔 반월","location": {"lon": 126.74078610000001, "lat": 37.38967928},"area":"경기도","type":"MOTEL","address":"경기 시흥시 월곶동 1005-20"}
{"index":{"_index":"hotel", "_id":"121"}}
{"name":"월곶 Design XYM","location": {"lon": 126.74064309999999, "lat": 37.39054034},"area":"경기도","type":"MOTEL","address":"경기 시흥시 월곶동 1003-11"}
{"index":{"_index":"hotel", "_id":"122"}}
{"name":"안산 파라오","location": {"lon": 126.84230659999999, "lat": 37.31735435},"area":"경기도","type":"MOTEL","address":"경기 안산시 단원구 고잔동 542-2"}
{"index":{"_index":"hotel", "_id":"123"}}
{"name":"안산 Q","location": {"lon": 126.84136240000001, "lat": 37.31785406},"area":"경기도","type":"MOTEL","address":"경기 안산시 단원구 고잔동 540-8"}
{"index":{"_index":"hotel", "_id":"124"}}
{"name":"안산 BIZ - 구 신라호텔","location": {"lon": 126.8597301, "lat": 37.32690561},"area":"경기도","type":"MOTEL","address":"경기 안산시 상록구 부곡동 685-6"}
{"index":{"_index":"hotel", "_id":"125"}}
{"name":"안산 캔","location": {"lon": 126.8374784, "lat": 37.31723609},"area":"경기도","type":"MOTEL","address":"경기 안산시 단원구 고잔동 541"}
{"index":{"_index":"hotel", "_id":"126"}}
{"name":"안산 H캐슬","location": {"lon": 126.8321351, "lat": 37.31335779},"area":"경기도","type":"MOTEL","address":"경기 안산시 단원구 고잔동 726-2"}
{"index":{"_index":"hotel", "_id":"127"}}
{"name":"안산 나무","location": {"lon": 126.808924, "lat": 37.33272721},"area":"경기도","type":"MOTEL","address":"경기 안산시 단원구 선부동 1072"}
{"index":{"_index":"hotel", "_id":"128"}}
{"name":"안산 아이린","location": {"lon": 126.79170970000001, "lat": 37.33426956},"area":"경기도","type":"MOTEL","address":"경기 안산시 단원구 원곡동 960-2"}
{"index":{"_index":"hotel", "_id":"129"}}
{"name":"안산 아이비","location": {"lon": 126.8085804, "lat": 37.33297534},"area":"경기도","type":"MOTEL","address":"경기 안산시 단원구 선부동 1071-14"}
{"index":{"_index":"hotel", "_id":"130"}}
{"name":"안산 패션","location": {"lon": 126.849484, "lat": 37.2799707},"area":"경기도","type":"MOTEL","address":"경기 안산시 상록구 사동 1480"}
{"index":{"_index":"hotel", "_id":"131"}}
{"name":"안산 드림","location": {"lon": 126.8374784, "lat": 37.31723609},"area":"경기도","type":"MOTEL","address":"경기 안산시 단원구 고잔동 541"}
{"index":{"_index":"hotel", "_id":"132"}}
{"name":"안산 O2-오투","location": {"lon": 126.8358668, "lat": 37.31748255},"area":"경기도","type":"MOTEL","address":"경기 안산시 단원구 고잔동 537-3"}
{"index":{"_index":"hotel", "_id":"133"}}
{"name":"안산 짝","location": {"lon": 126.83953079999999, "lat": 37.31763535},"area":"경기도","type":"MOTEL","address":"경기 안산시 단원구 고잔동 540-12"}
{"index":{"_index":"hotel", "_id":"134"}}
{"name":"안산 커플","location": {"lon": 126.83908329999998, "lat": 37.31796632},"area":"경기도","type":"MOTEL","address":"경기 안산시 단원구 고잔동 540-4"}
{"index":{"_index":"hotel", "_id":"135"}}
{"name":"안양 허브","location": {"lon": 126.9339598, "lat": 37.38729233},"area":"경기도","type":"MOTEL","address":"경기 안양시 만안구 안양동 529-15"}
{"index":{"_index":"hotel", "_id":"136"}}
{"name":"안양 펠리스","location": {"lon": 126.93356670000001, "lat": 37.38741465},"area":"경기도","type":"MOTEL","address":"경기 안양시 만안구 안양동 528-14"}
{"index":{"_index":"hotel", "_id":"137"}}
{"name":"안양 자미아","location": {"lon": 126.92183659999999, "lat": 37.40034976},"area":"경기도","type":"MOTEL","address":"경기 안양시 만안구 안양동 674-22"}
{"index":{"_index":"hotel", "_id":"138"}}
{"name":"안양 캘리포니아","location": {"lon": 126.97727179999998, "lat": 37.40101854},"area":"경기도","type":"MOTEL","address":"경기 안양시 동안구 관양동 1505-4"}
{"index":{"_index":"hotel", "_id":"139"}}
{"name":"안양 M","location": {"lon": 126.919936, "lat": 37.39920239},"area":"경기도","type":"MOTEL","address":"경기 안양시 만안구 안양동 676-161"}
{"index":{"_index":"hotel", "_id":"140"}}
{"name":"안양 더원","location": {"lon": 126.91975990000002, "lat": 37.39907613},"area":"경기도","type":"MOTEL","address":"경기 안양시 만안구 안양동 676-163"}
{"index":{"_index":"hotel", "_id":"141"}}
{"name":"평촌 27HOTEL","location": {"lon": 126.9605967, "lat": 37.39342035},"area":"경기도","type":"MOTEL","address":"경기 안양시 동안구 관양동 1602-1"}
{"index":{"_index":"hotel", "_id":"142"}}
{"name":"잠실 쉴","location": {"lon": 127.1135574, "lat": 37.51619482},"area":"서울시/서울특별시","type":"MOTEL","address":"서울 송파구 방이동 48-1"}
{"index":{"_index":"hotel", "_id":"143"}}
{"name":"안양 코암관광호텔","location": {"lon": 126.931354, "lat": 37.39178875},"area":"경기도","type":"MOTEL","address":"경기 안양시 만안구 안양동 431-10"}
{"index":{"_index":"hotel", "_id":"144"}}
{"name":"화곡 부띠끄S","location": {"lon": 126.85009550000001, "lat": 37.55300158},"area":"서울시/서울특별시","type":"MOTEL","address":"서울 강서구 화곡동 1105-12"}
{"index":{"_index":"hotel", "_id":"145"}}
{"name":"양주 수 호텔","location": {"lon": 126.94677240000001, "lat": 37.77741092},"area":"경기도","type":"MOTEL","address":"경기 양주시 백석읍 기산리 272-2"}
{"index":{"_index":"hotel", "_id":"146"}}
{"name":"광명 쉘","location": {"lon": 126.8698097, "lat": 37.47481787},"area":"경기도","type":"MOTEL","address":"경기 광명시 철산동 435"}
{"index":{"_index":"hotel", "_id":"147"}}
{"name":"석남 더 라임","location": {"lon": 126.6710692, "lat": 37.50692916},"area":"인천시/인천광역시","type":"MOTEL","address":"인천 서구 석남동 518-13"}
{"index":{"_index":"hotel", "_id":"148"}}
{"name":"양주 전망좋은방","location": {"lon": 126.9435543, "lat": 37.7520959},"area":"경기도","type":"MOTEL","address":"경기 양주시 장흥면 석현리 282"}
{"index":{"_index":"hotel", "_id":"149"}}
{"name":"양주 해","location": {"lon": 126.9471562, "lat": 37.7230431},"area":"경기도","type":"MOTEL","address":"경기 양주시 장흥면 일영리 38-5"}
{"index":{"_index":"hotel", "_id":"150"}}
{"name":"양평 지오","location": {"lon": 127.4772253, "lat": 37.48968258},"area":"경기도","type":"MOTEL","address":"경기 양평군 강상면 병산리 756"}
{"index":{"_index":"hotel", "_id":"151"}}
{"name":"청주 뉴발리","location": {"lon": 127.4828781, "lat": 36.6574096},"area":"충북/충청북도/충청도","type":"MOTEL","address":"충북 청주시 청원구 내덕동 646-3"}
{"index":{"_index":"hotel", "_id":"152"}}
{"name":"양평 미션호텔","location": {"lon": 127.45498559999999, "lat": 37.49631158},"area":"경기도","type":"MOTEL","address":"경기 양평군 강상면 병산리 1059-1"}
{"index":{"_index":"hotel", "_id":"153"}}
{"name":"양평 8월호텔","location": {"lon": 127.5187277, "lat": 37.47137232},"area":"경기도","type":"MOTEL","address":"경기 양평군 양평읍 회현리 143-1"}
{"index":{"_index":"hotel", "_id":"154"}}
{"name":"여주 에코","location": {"lon": 127.653023, "lat": 37.29145255},"area":"경기도","type":"MOTEL","address":"경기 여주시 상동 37-4"}
{"index":{"_index":"hotel", "_id":"155"}}
{"name":"여주 J","location": {"lon": 127.65088130000001, "lat": 37.29314386},"area":"경기도","type":"MOTEL","address":"경기 여주시 상동 67"}
{"index":{"_index":"hotel", "_id":"156"}}
{"name":"여주 리버뷰 모텔&펜션","location": {"lon": 127.66674579999999, "lat": 37.28996324},"area":"경기도","type":"MOTEL","address":"경기 여주시 연양동 279-2"}
{"index":{"_index":"hotel", "_id":"157"}}
{"name":"여주 프린스","location": {"lon": 127.6364443, "lat": 37.29725174},"area":"경기도","type":"MOTEL","address":"경기 여주시 홍문동 16-8"}
{"index":{"_index":"hotel", "_id":"158"}}
{"name":"일산 그랜드","location": {"lon": 126.75938570000001, "lat": 37.67177103},"area":"경기도","type":"MOTEL","address":"경기 고양시 일산서구 주엽동 18-1"}
{"index":{"_index":"hotel", "_id":"159"}}
{"name":"오산 아이유","location": {"lon": 127.0693034, "lat": 37.14849647},"area":"경기도","type":"MOTEL","address":"경기 오산시 오산동 876-15"}
{"index":{"_index":"hotel", "_id":"160"}}
{"name":"용인 호텔리버","location": {"lon": 127.1075058, "lat": 37.27103961},"area":"경기도","type":"MOTEL","address":"경기 용인시 기흥구 신갈동  69-14"}
{"index":{"_index":"hotel", "_id":"161"}}
{"name":"용인 LEE디자인호텔","location": {"lon": 127.1504239, "lat": 37.27227594},"area":"경기도","type":"MOTEL","address":"경기 용인시 기흥구 중동 845-1"}
{"index":{"_index":"hotel", "_id":"162"}}
{"name":"신갈 오투-O2","location": {"lon": 127.0961594, "lat": 37.28907377},"area":"경기도","type":"MOTEL","address":"경기 용인시 기흥구 신갈동 537-57"}
{"index":{"_index":"hotel", "_id":"163"}}
{"name":"용인 스타호텔","location": {"lon": 127.0963754, "lat": 37.28871318},"area":"경기도","type":"MOTEL","address":"경기 용인시 기흥구 신갈동 536-6"}
{"index":{"_index":"hotel", "_id":"164"}}
{"name":"이천 미션","location": {"lon": 127.4896574, "lat": 37.25393648},"area":"경기도","type":"MOTEL","address":"경기 이천시 부발읍 아미리 737-13"}
{"index":{"_index":"hotel", "_id":"165"}}
{"name":"파주 에쿠스","location": {"lon": 126.7762739, "lat": 37.76108692},"area":"경기도","type":"MOTEL","address":"경기 파주시 아동동 331-2"}
{"index":{"_index":"hotel", "_id":"166"}}
{"name":"파주 택시-TAXI","location": {"lon": 126.77606170000001, "lat": 37.76072253},"area":"경기도","type":"MOTEL","address":"경기 파주시 아동동 334-34"}
{"index":{"_index":"hotel", "_id":"167"}}
{"name":"파주 시크릿","location": {"lon": 126.75715359999998, "lat": 37.80972977},"area":"경기도","type":"MOTEL","address":"경기 파주시 탄현면 금승리 11-39"}
{"index":{"_index":"hotel", "_id":"168"}}
{"name":"파주 이브텔","location": {"lon": 126.68633270000001, "lat": 37.78080031},"area":"경기도","type":"MOTEL","address":"경기 파주시 탄현면 성동리 666-2"}
{"index":{"_index":"hotel", "_id":"169"}}
{"name":"파주 에로스","location": {"lon": 126.68605759999998, "lat": 37.78035991},"area":"경기도","type":"MOTEL","address":"경기 파주시 탄현면 성동리 666-4"}
{"index":{"_index":"hotel", "_id":"170"}}
{"name":"파주 듀오텔","location": {"lon": 126.68554089999999, "lat": 37.78014951},"area":"경기도","type":"MOTEL","address":"경기 파주시 탄현면 성동리 666-6"}
{"index":{"_index":"hotel", "_id":"171"}}
{"name":"파주 벤","location": {"lon": 126.68424399999999, "lat": 37.79789132},"area":"경기도","type":"MOTEL","address":"경기 파주시 탄현면 성동리 124-10"}
{"index":{"_index":"hotel", "_id":"172"}}
{"name":"파주 벨리타N굿타임","location": {"lon": 126.68386799999999, "lat": 37.79873},"area":"경기도","type":"MOTEL","address":"경기 파주시 탄현면 성동리 124-50"}
{"index":{"_index":"hotel", "_id":"173"}}
{"name":"송탄 드라마","location": {"lon": 127.0559229, "lat": 37.0827114},"area":"경기도","type":"MOTEL","address":"경기 평택시 신장동  192-2"}
{"index":{"_index":"hotel", "_id":"174"}}
{"name":"평택 렉시","location": {"lon": 127.09146670000001, "lat": 36.99256726},"area":"경기도","type":"MOTEL","address":"경기 평택시 합정동 730-21"}
{"index":{"_index":"hotel", "_id":"175"}}
{"name":"포천 수목원호텔","location": {"lon": 127.1645979, "lat": 37.7724536},"area":"경기도","type":"MOTEL","address":"경기 포천시 소흘읍 직동리 350-1"}
{"index":{"_index":"hotel", "_id":"176"}}
{"name":"포천 쟈스민","location": {"lon": 127.16422060000001, "lat": 37.77227033},"area":"경기도","type":"MOTEL","address":"경기 포천시 소흘읍 직동리 354-4"}
{"index":{"_index":"hotel", "_id":"177"}}
{"name":"포천 발트 호텔","location": {"lon": 127.1468764, "lat": 37.82910411},"area":"경기도","type":"MOTEL","address":"경기 포천시 소흘읍 송우리 198"}
{"index":{"_index":"hotel", "_id":"178"}}
{"name":"포천 위드드라이브인","location": {"lon": 127.1564494, "lat": 37.77512434},"area":"경기도","type":"MOTEL","address":"경기 포천시 소흘읍 이곡리 34-1"}
{"index":{"_index":"hotel", "_id":"179"}}
{"name":"하남 그랜드윈저","location": {"lon": 127.2149023, "lat": 37.54121704},"area":"경기도","type":"MOTEL","address":"경기 하남시 신장동 522-2"}
{"index":{"_index":"hotel", "_id":"180"}}
{"name":"제부도 아일랜드","location": {"lon": 126.66130259999998, "lat": 37.17306408},"area":"경기도","type":"MOTEL","address":"경기 화성시 서신면 송교리 348-4"}
{"index":{"_index":"hotel", "_id":"181"}}
{"name":"병점 밀","location": {"lon": 127.0437264, "lat": 37.21464969},"area":"경기도","type":"MOTEL","address":"경기 화성시 병점동 844-5"}
{"index":{"_index":"hotel", "_id":"182"}}
{"name":"동탄 애니콜","location": {"lon": 127.07338429999999, "lat": 37.20131029},"area":"경기도","type":"MOTEL","address":"경기 화성시 반송동 106-2"}
{"index":{"_index":"hotel", "_id":"183"}}
{"name":"제부도 스위텔","location": {"lon": 126.6582185, "lat": 37.17381571},"area":"경기도","type":"MOTEL","address":"경기 화성시 서신면 송교리 378-11"}
{"index":{"_index":"hotel", "_id":"184"}}
{"name":"제부도 스테이7","location": {"lon": 126.62254879999999, "lat": 37.17607181},"area":"경기도","type":"MOTEL","address":"경기 화성시 서신면 제부리 288-43"}
{"index":{"_index":"hotel", "_id":"185"}}
{"name":"동탄 시크릿","location": {"lon": 127.07327590000001, "lat": 37.20576515},"area":"경기도","type":"MOTEL","address":"경기 화성시 반송동 88-9"}
{"index":{"_index":"hotel", "_id":"186"}}
{"name":"동탄 더스토리","location": {"lon": 127.0743615, "lat": 37.20537522},"area":"경기도","type":"MOTEL","address":"경기 화성시 반송동 90-7"}
{"index":{"_index":"hotel", "_id":"187"}}
{"name":"동탄 투헤븐","location": {"lon": 127.0738801, "lat": 37.20615403},"area":"경기도","type":"MOTEL","address":"경기 화성시 반송동 88-6"}
{"index":{"_index":"hotel", "_id":"188"}}
{"name":"동탄 애플","location": {"lon": 127.0733611, "lat": 37.20527853},"area":"경기도","type":"MOTEL","address":"경기 화성시 반송동 91-6"}
{"index":{"_index":"hotel", "_id":"189"}}
{"name":"월곶 짝","location": {"lon": 126.74119040000001, "lat": 37.3903289},"area":"경기도","type":"MOTEL","address":"경기 시흥시 월곶동 1004-9"}
{"index":{"_index":"hotel", "_id":"190"}}
{"name":"안산 반디호텔","location": {"lon": 126.80917690000001, "lat": 37.33268437},"area":"경기도","type":"MOTEL","address":"경기 안산시 단원구 선부동 1072-7"}
{"index":{"_index":"hotel", "_id":"191"}}
{"name":"오산 W호텔","location": {"lon": 127.07142169999999, "lat": 37.14597946},"area":"경기도","type":"MOTEL","address":"경기 오산시 원동 763-8"}
{"index":{"_index":"hotel", "_id":"192"}}
{"name":"거제 갤러리","location": {"lon": 128.6968727, "lat": 34.89304579},"area":"경남/경상남도/경상도","type":"MOTEL","address":"경남 거제시 옥포동 1912-1"}
{"index":{"_index":"hotel", "_id":"193"}}
{"name":"거제 노블레스","location": {"lon": 128.695679, "lat": 34.8911698},"area":"경남/경상남도/경상도","type":"MOTEL","address":"경남 거제시 옥포동 1943"}
{"index":{"_index":"hotel", "_id":"194"}}
{"name":"김해 하늘이열리는 MT365","location": {"lon": 128.9058655, "lat": 35.24461431},"area":"경남/경상남도/경상도","type":"MOTEL","address":"경남 김해시 어방동 531-1"}
{"index":{"_index":"hotel", "_id":"195"}}
{"name":"김해 휴","location": {"lon": 128.8832682, "lat": 35.22775917},"area":"경남/경상남도/경상도","type":"MOTEL","address":"경남 김해시 부원동 607-4"}
{"index":{"_index":"hotel", "_id":"196"}}
{"name":"김해 S","location": {"lon": 128.9092917, "lat": 35.24381772},"area":"경남/경상남도/경상도","type":"MOTEL","address":"경남 김해시 삼방동 183-3"}
{"index":{"_index":"hotel", "_id":"197"}}
{"name":"양산 쇼","location": {"lon": 129.0395318, "lat": 35.3494371},"area":"경남/경상남도/경상도","type":"MOTEL","address":"경남 양산시 북부동 692-9"}
{"index":{"_index":"hotel", "_id":"198"}}
{"name":"석산 WOW","location": {"lon": 129.0272981, "lat": 35.31639793},"area":"경남/경상남도/경상도","type":"MOTEL","address":"경남 양산시 동면 석산리 1456-7"}
{"index":{"_index":"hotel", "_id":"199"}}
{"name":"석산 1박2일","location": {"lon": 129.0260616, "lat": 35.31654483},"area":"경남/경상남도/경상도","type":"MOTEL","address":"경남 양산시 동면 석산리 1454-6"}
{"index":{"_index":"hotel", "_id":"200"}}
{"name":"석산 Q5","location": {"lon": 129.0260036, "lat": 35.31422084},"area":"경남/경상남도/경상도","type":"MOTEL","address":"경남 양산시 동면 석산리 1479-8"}
{"index":{"_index":"hotel", "_id":"201"}}
{"name":"진주 호텔 여우비","location": {"lon": 128.080668, "lat": 35.19564142},"area":"경남/경상남도/경상도","type":"MOTEL","address":"경남 진주시 계동 115"}
{"index":{"_index":"hotel", "_id":"202"}}
{"name":"진주 G&G","location": {"lon": 128.07536470000002, "lat": 35.19614289},"area":"경남/경상남도/경상도","type":"MOTEL","address":"경남 진주시 봉곡동 25-9"}
{"index":{"_index":"hotel", "_id":"203"}}
{"name":"진주 호텔 더 브이","location": {"lon": 128.0865745, "lat": 35.19295316},"area":"경남/경상남도/경상도","type":"MOTEL","address":"경남 진주시 장대동 131-9"}
{"index":{"_index":"hotel", "_id":"204"}}
{"name":"진주 EM","location": {"lon": 128.11009579999998, "lat": 35.16929882},"area":"경남/경상남도/경상도","type":"MOTEL","address":"경남 진주시 상평동 240-17"}
{"index":{"_index":"hotel", "_id":"205"}}
{"name":"진주 K","location": {"lon": 128.08045, "lat": 35.19575873},"area":"경남/경상남도/경상도","type":"MOTEL","address":"경남 진주시 계동 118-1"}
{"index":{"_index":"hotel", "_id":"206"}}
{"name":"진주 솜누스","location": {"lon": 128.0873811, "lat": 35.19086211},"area":"경남/경상남도/경상도","type":"MOTEL","address":"경남 진주시 장대동 107-27"}
{"index":{"_index":"hotel", "_id":"207"}}
{"name":"명서 V","location": {"lon": 128.64907649999998, "lat": 35.2413502},"area":"경남/경상남도/경상도","type":"MOTEL","address":"경남 창원시 의창구 명서동 203-3"}
{"index":{"_index":"hotel", "_id":"208"}}
{"name":"명서 좋은 날","location": {"lon": 128.6490058, "lat": 35.24089695},"area":"경남/경상남도/경상도","type":"MOTEL","address":"경남 창원시 의창구 명서동 204-4"}
{"index":{"_index":"hotel", "_id":"209"}}
{"name":"팔용 멀티","location": {"lon": 128.6076534, "lat": 35.25625158},"area":"경남/경상남도/경상도","type":"MOTEL","address":"경남 창원시 의창구 팔용동 155-2"}
{"index":{"_index":"hotel", "_id":"210"}}
{"name":"상남 토토스","location": {"lon": 128.6819954, "lat": 35.22085759},"area":"경남/경상남도/경상도","type":"MOTEL","address":"경남 창원시 성산구 상남동 23-7"}
{"index":{"_index":"hotel", "_id":"211"}}
{"name":"용원 W","location": {"lon": 128.8122801, "lat": 35.100807},"area":"경남/경상남도/경상도","type":"MOTEL","address":"경남 창원시 진해구 용원동 1213-13"}
{"index":{"_index":"hotel", "_id":"212"}}
{"name":"오동 쇼","location": {"lon": 128.5821085, "lat": 35.20435286},"area":"경남/경상남도/경상도","type":"MOTEL","address":"경남 창원시 마산합포구 오동동 319-4"}
{"index":{"_index":"hotel", "_id":"213"}}
{"name":"창동 에코","location": {"lon": 128.57816699999998, "lat": 35.20312455},"area":"경남/경상남도/경상도","type":"MOTEL","address":"경남 창원시 마산합포구 남성동 248-7"}
{"index":{"_index":"hotel", "_id":"214"}}
{"name":"통영 아이유","location": {"lon": 128.4212843, "lat": 34.88624155},"area":"경남/경상남도/경상도","type":"MOTEL","address":"경남 통영시 광도면 죽림리 1571-7"}
{"index":{"_index":"hotel", "_id":"215"}}
{"name":"통영 락","location": {"lon": 128.4222351, "lat": 34.88403846},"area":"경남/경상남도/경상도","type":"MOTEL","address":"경남 통영시 광도면 죽림리 1572-17"}
{"index":{"_index":"hotel", "_id":"216"}}
{"name":"통영 화진주","location": {"lon": 128.4243406, "lat": 34.84173892},"area":"경남/경상남도/경상도","type":"MOTEL","address":"경남 통영시 항남동 114-14"}
{"index":{"_index":"hotel", "_id":"217"}}
{"name":"통영 와","location": {"lon": 128.4219098, "lat": 34.84075429},"area":"경남/경상남도/경상도","type":"MOTEL","address":"경남 통영시 항남동 239-8"}
{"index":{"_index":"hotel", "_id":"218"}}
{"name":"문창 호텔 루이스","location": {"lon": 127.43356340000001, "lat": 36.3209072},"area":"대전시/대전광역시","type":"MOTEL","address":"대전 중구 문창동 44-4"}
{"index":{"_index":"hotel", "_id":"219"}}
{"name":"덕계 N","location": {"lon": 129.1467048, "lat": 35.3690559},"area":"경남/경상남도/경상도","type":"MOTEL","address":"경남 양산시 덕계동 758-9"}
{"index":{"_index":"hotel", "_id":"220"}}
{"name":"성남 러쉬-LUSH","location": {"lon": 127.1376061, "lat": 37.4351433},"area":"경기도","type":"MOTEL","address":"경기 성남시 중원구 성남동 2222"}
{"index":{"_index":"hotel", "_id":"221"}}
{"name":"진주 해비치","location": {"lon": 128.0798014, "lat": 35.19553739},"area":"경남/경상남도/경상도","type":"MOTEL","address":"경남 진주시 봉곡동 66"}
{"index":{"_index":"hotel", "_id":"222"}}
{"name":"경산 발렌타인","location": {"lon": 128.72538020000002, "lat": 35.82761115},"area":"경북/경상북도/경상도","type":"MOTEL","address":"경북 경산시 옥산동 730-3"}
{"index":{"_index":"hotel", "_id":"223"}}
{"name":"경산 리베라","location": {"lon": 128.7255689, "lat": 35.82794366},"area":"경북/경상북도/경상도","type":"MOTEL","address":"경북 경산시 옥산동 727-9"}
{"index":{"_index":"hotel", "_id":"224"}}
{"name":"경주 J부티크","location": {"lon": 129.2032098, "lat": 35.84190748},"area":"경북/경상북도/경상도","type":"MOTEL","address":"경북 경주시 노서동 178-32"}
{"index":{"_index":"hotel", "_id":"225"}}
{"name":"경주 TOP","location": {"lon": 129.2609899, "lat": 35.80669883},"area":"경북/경상북도/경상도","type":"MOTEL","address":"경북 경주시 동방동 107-2"}
{"index":{"_index":"hotel", "_id":"226"}}
{"name":"경주 티포인트","location": {"lon": 129.2606427, "lat": 35.80709462},"area":"경북/경상북도/경상도","type":"MOTEL","address":"경북 경주시 동방동 267-21"}
{"index":{"_index":"hotel", "_id":"227"}}
{"name":"경주 B&B","location": {"lon": 129.303673, "lat": 35.77453215},"area":"경북/경상북도/경상도","type":"MOTEL","address":"경북 경주시 시래동 945-125"}
{"index":{"_index":"hotel", "_id":"228"}}
{"name":"경주 타임","location": {"lon": 129.2030858, "lat": 35.8401473},"area":"경북/경상북도/경상도","type":"MOTEL","address":"경북 경주시 노서동 181-24"}
{"index":{"_index":"hotel", "_id":"229"}}
{"name":"경주 로즈","location": {"lon": 129.2056097, "lat": 35.8409768},"area":"경북/경상북도/경상도","type":"MOTEL","address":"경북 경주시 노서동 132-11"}
{"index":{"_index":"hotel", "_id":"230"}}
{"name":"경주 달러","location": {"lon": 129.2041135, "lat": 35.8390544},"area":"경북/경상북도/경상도","type":"MOTEL","address":"경북 경주시 노서동 170-16"}
{"index":{"_index":"hotel", "_id":"231"}}
{"name":"경주 쇼","location": {"lon": 129.20234150000002, "lat": 35.84076285},"area":"경북/경상북도/경상도","type":"MOTEL","address":"경북 경주시 노서동 160-11"}
{"index":{"_index":"hotel", "_id":"232"}}
{"name":"포항 호텔 퐁네프","location": {"lon": 129.3465158, "lat": 36.0126265},"area":"경북/경상북도/경상도","type":"MOTEL","address":"경북 포항시 남구 대잠동  946-18"}
{"index":{"_index":"hotel", "_id":"233"}}
{"name":"포항 BB모텔","location": {"lon": 129.37449709999999, "lat": 36.0523569},"area":"경북/경상북도/경상도","type":"MOTEL","address":"경북 포항시 북구 항구동 29-18"}
{"index":{"_index":"hotel", "_id":"234"}}
{"name":"포항 호텔더반","location": {"lon": 129.3464188, "lat": 36.01354381},"area":"경북/경상북도/경상도","type":"MOTEL","address":"경북 포항시 남구 대잠동 944-22"}
{"index":{"_index":"hotel", "_id":"235"}}
{"name":"포항 쇼","location": {"lon": 129.3530888, "lat": 36.01587458},"area":"경북/경상북도/경상도","type":"MOTEL","address":"경북 포항시 북구 죽도동 718-6"}
{"index":{"_index":"hotel", "_id":"236"}}
{"name":"포항 애니","location": {"lon": 129.3548337, "lat": 36.01145427},"area":"경북/경상북도/경상도","type":"MOTEL","address":"경북 포항시 남구 상도동 640-28"}
{"index":{"_index":"hotel", "_id":"237"}}
{"name":"첨단 오늘","location": {"lon": 126.8476738, "lat": 35.21681567},"area":"광주시/광주광역시","type":"MOTEL","address":"광주 광산구 월계동 871-1"}
{"index":{"_index":"hotel", "_id":"238"}}
{"name":"쌍암 제이","location": {"lon": 126.8442567, "lat": 35.21863926},"area":"광주시/광주광역시","type":"MOTEL","address":"광주 광산구 쌍암동 668-14"}
{"index":{"_index":"hotel", "_id":"239"}}
{"name":"하남 VOLL","location": {"lon": 126.80328540000001, "lat": 35.16319687},"area":"광주시/광주광역시","type":"MOTEL","address":"광주 광산구 우산동 1574-9"}
{"index":{"_index":"hotel", "_id":"240"}}
{"name":"신안 아드리아","location": {"lon": 126.90386969999999, "lat": 35.16408639},"area":"광주시/광주광역시","type":"MOTEL","address":"광주 북구 신안동 141-17"}
{"index":{"_index":"hotel", "_id":"241"}}
{"name":"신안 드림","location": {"lon": 126.90639709999999, "lat": 35.16546204},"area":"광주시/광주광역시","type":"MOTEL","address":"광주 북구 신안동 123-22"}
{"index":{"_index":"hotel", "_id":"242"}}
{"name":"신안 아그네스","location": {"lon": 126.9040689, "lat": 35.16645893},"area":"광주시/광주광역시","type":"MOTEL","address":"광주 북구 신안동 126-2"}
{"index":{"_index":"hotel", "_id":"243"}}
{"name":"쌍촌 Q","location": {"lon": 126.86564820000001, "lat": 35.15203312},"area":"광주시/광주광역시","type":"MOTEL","address":"광주 서구 쌍촌동 956-20"}
{"index":{"_index":"hotel", "_id":"244"}}
{"name":"서구 나인","location": {"lon": 126.85673500000001, "lat": 35.15054828},"area":"광주시/광주광역시","type":"MOTEL","address":"광주 서구 쌍촌동 971-42"}
{"index":{"_index":"hotel", "_id":"245"}}
{"name":"치평 드라마","location": {"lon": 126.85088870000001, "lat": 35.15005449},"area":"광주시/광주광역시","type":"MOTEL","address":"광주 서구 치평동 1258-7"}
{"index":{"_index":"hotel", "_id":"246"}}
{"name":"치평 신라","location": {"lon": 126.85233810000001, "lat": 35.14961641},"area":"광주시/광주광역시","type":"MOTEL","address":"광주 서구 치평동 1261-6"}
{"index":{"_index":"hotel", "_id":"247"}}
{"name":"치평 발렌시아","location": {"lon": 126.8498864, "lat": 35.14845965},"area":"광주시/광주광역시","type":"MOTEL","address":"광주 서구 치평동 1255-6"}
{"index":{"_index":"hotel", "_id":"248"}}
{"name":"광주 호텔스퀘어","location": {"lon": 126.8797442, "lat": 35.15788874},"area":"광주시/광주광역시","type":"MOTEL","address":"광주 서구 화정동 23-11"}
{"index":{"_index":"hotel", "_id":"249"}}
{"name":"풍암 다이아","location": {"lon": 126.87907949999999, "lat": 35.12644137},"area":"광주시/광주광역시","type":"MOTEL","address":"광주 서구 풍암동 1117-11"}
{"index":{"_index":"hotel", "_id":"250"}}
{"name":"대명 무이-구 허니문","location": {"lon": 128.5750836, "lat": 35.8593303},"area":"대구시/대구광역시","type":"MOTEL","address":"대구 남구 대명동 2274-3"}
{"index":{"_index":"hotel", "_id":"251"}}
{"name":"앞산 2월호텔","location": {"lon": 128.5824384, "lat": 35.84172974},"area":"대구시/대구광역시","type":"MOTEL","address":"대구 남구 대명동 1699-12"}
{"index":{"_index":"hotel", "_id":"252"}}
{"name":"대현 로미오","location": {"lon": 128.6031929, "lat": 35.88550966},"area":"대구시/대구광역시","type":"MOTEL","address":"대구 북구 대현동 412-8"}
{"index":{"_index":"hotel", "_id":"253"}}
{"name":"죽전 GG","location": {"lon": 128.5347302, "lat": 35.84687604},"area":"대구시/대구광역시","type":"MOTEL","address":"대구 달서구 감삼동 559-5"}
{"index":{"_index":"hotel", "_id":"254"}}
{"name":"죽전 애플","location": {"lon": 128.535051, "lat": 35.84767217},"area":"대구시/대구광역시","type":"MOTEL","address":"대구 달서구 감삼동 567-1"}
{"index":{"_index":"hotel", "_id":"255"}}
{"name":"성서 수","location": {"lon": 128.4869743, "lat": 35.84247337},"area":"대구시/대구광역시","type":"MOTEL","address":"대구 달서구 호산동 709-5"}
{"index":{"_index":"hotel", "_id":"256"}}
{"name":"죽전 sky","location": {"lon": 128.534669, "lat": 35.84783565},"area":"대구시/대구광역시","type":"MOTEL","address":"대구 달서구 감삼동 567-13"}
{"index":{"_index":"hotel", "_id":"257"}}
{"name":"죽전 투유","location": {"lon": 128.5328277, "lat": 35.84786276},"area":"대구시/대구광역시","type":"MOTEL","address":"대구 달서구 감삼동 575-4"}
{"index":{"_index":"hotel", "_id":"258"}}
{"name":"용산 인어","location": {"lon": 128.5333561, "lat": 35.84311595},"area":"대구시/대구광역시","type":"MOTEL","address":"대구 달서구 장기동 554-4"}
{"index":{"_index":"hotel", "_id":"259"}}
{"name":"성서 핑크","location": {"lon": 128.4888955, "lat": 35.83867551},"area":"대구시/대구광역시","type":"MOTEL","address":"대구 달서구 호림동 11-15"}
{"index":{"_index":"hotel", "_id":"260"}}
{"name":"성서 DO","location": {"lon": 128.4891479, "lat": 35.83867959},"area":"대구시/대구광역시","type":"MOTEL","address":"대구 달서구 호림동 11-14"}
{"index":{"_index":"hotel", "_id":"261"}}
{"name":"성서 노리","location": {"lon": 128.4901058, "lat": 35.84042678},"area":"대구시/대구광역시","type":"MOTEL","address":"대구 달서구 호산동 711-2"}
{"index":{"_index":"hotel", "_id":"262"}}
{"name":"동대구역 와와","location": {"lon": 128.6288436, "lat": 35.86928282},"area":"대구시/대구광역시","type":"MOTEL","address":"대구 동구 신천동 314-3"}
{"index":{"_index":"hotel", "_id":"263"}}
{"name":"동대구역 샹그리라","location": {"lon": 128.62649040000002, "lat": 35.87309949},"area":"대구시/대구광역시","type":"MOTEL","address":"대구 동구 신천동 292-13"}
{"index":{"_index":"hotel", "_id":"264"}}
{"name":"신천 투하트","location": {"lon": 128.6283628, "lat": 35.87024094},"area":"대구시/대구광역시","type":"MOTEL","address":"대구 동구 신천동 340-2"}
{"index":{"_index":"hotel", "_id":"265"}}
{"name":"동촌 임페리얼","location": {"lon": 128.6526871, "lat": 35.88038707},"area":"대구시/대구광역시","type":"MOTEL","address":"대구 동구 효목동 1100-10"}
{"index":{"_index":"hotel", "_id":"266"}}
{"name":"동촌 힐","location": {"lon": 128.6490282, "lat": 35.89062018},"area":"대구시/대구광역시","type":"MOTEL","address":"대구 동구 입석동 895-1"}
{"index":{"_index":"hotel", "_id":"267"}}
{"name":"신천 레지던스-R","location": {"lon": 128.6283314, "lat": 35.87043601},"area":"대구시/대구광역시","type":"MOTEL","address":"대구 동구 신천동 340-1"}
{"index":{"_index":"hotel", "_id":"268"}}
{"name":"경북대 W","location": {"lon": 128.6033679, "lat": 35.88539918},"area":"대구시/대구광역시","type":"MOTEL","address":"대구 북구 대현동 412-10"}
{"index":{"_index":"hotel", "_id":"269"}}
{"name":"경북대 꼬모","location": {"lon": 128.61378190000002, "lat": 35.89611298},"area":"대구시/대구광역시","type":"MOTEL","address":"대구 북구 복현동 402-6"}
{"index":{"_index":"hotel", "_id":"270"}}
{"name":"수성 룩앤톡","location": {"lon": 128.6227295, "lat": 35.84134009},"area":"대구시/대구광역시","type":"MOTEL","address":"대구 수성구 황금동 859-2"}
{"index":{"_index":"hotel", "_id":"271"}}
{"name":"수성 젠-ZEN","location": {"lon": 128.62153030000002, "lat": 35.8368001},"area":"대구시/대구광역시","type":"MOTEL","address":"대구 수성구 두산동 87-15"}
{"index":{"_index":"hotel", "_id":"272"}}
{"name":"수성 첫눈","location": {"lon": 128.6214668, "lat": 35.83585296},"area":"대구시/대구광역시","type":"MOTEL","address":"대구 수성구 두산동 81-5"}
{"index":{"_index":"hotel", "_id":"273"}}
{"name":"수성 대가야","location": {"lon": 128.6232183, "lat": 35.84143081},"area":"대구시/대구광역시","type":"MOTEL","address":"대구 수성구 황금동 850-8"}
{"index":{"_index":"hotel", "_id":"274"}}
{"name":"동성로 사보이","location": {"lon": 128.5911257, "lat": 35.87259638},"area":"대구시/대구광역시","type":"MOTEL","address":"대구 중구 대안동 80-1"}
{"index":{"_index":"hotel", "_id":"275"}}
{"name":"동성로 궁","location": {"lon": 128.60354569999998, "lat": 35.87159133},"area":"대구시/대구광역시","type":"MOTEL","address":"대구 중구 동인동1가 257-1"}
{"index":{"_index":"hotel", "_id":"276"}}
{"name":"대덕 그린","location": {"lon": 127.4308196, "lat": 36.45103856},"area":"대전시/대전광역시","type":"MOTEL","address":"대전 대덕구 신탄진동 121-16"}
{"index":{"_index":"hotel", "_id":"277"}}
{"name":"중리 느낌표","location": {"lon": 127.4243298, "lat": 36.36042622},"area":"대전시/대전광역시","type":"MOTEL","address":"대전 대덕구 중리동 402-8"}
{"index":{"_index":"hotel", "_id":"278"}}
{"name":"천안 L","location": {"lon": 127.14742360000001, "lat": 36.8018424},"area":"충남/충청남도/충청도","type":"MOTEL","address":"충남 천안시 동남구 사직동 236-3"}
{"index":{"_index":"hotel", "_id":"279"}}
{"name":"대전 보그","location": {"lon": 127.4358837, "lat": 36.35281478},"area":"대전시/대전광역시","type":"MOTEL","address":"대전 동구 용전동 64-21"}
{"index":{"_index":"hotel", "_id":"280"}}
{"name":"대전 클릭21","location": {"lon": 127.4394462, "lat": 36.3507795},"area":"대전시/대전광역시","type":"MOTEL","address":"대전 동구 용전동 111-3"}
{"index":{"_index":"hotel", "_id":"281"}}
{"name":"구의 마레","location": {"lon": 127.08616740000001, "lat": 37.53738071},"area":"서울시/서울특별시","type":"MOTEL","address":"서울 광진구 구의동 246-39"}
{"index":{"_index":"hotel", "_id":"282"}}
{"name":"대전 아르데코","location": {"lon": 127.4388632, "lat": 36.35170805},"area":"대전시/대전광역시","type":"MOTEL","address":"대전 동구 용전동 77-17"}
{"index":{"_index":"hotel", "_id":"283"}}
{"name":"제주 T무인텔","location": {"lon": 126.65468919999999, "lat": 33.4773171},"area":"제주도/제주특별자치도","type":"MOTEL","address":"제주도 제주시 조천읍 와흘리 36-1"}
{"index":{"_index":"hotel", "_id":"284"}}
{"name":"대전 XYM","location": {"lon": 127.4398959, "lat": 36.35150599},"area":"대전시/대전광역시","type":"MOTEL","address":"대전 동구 용전동 78-30"}
{"index":{"_index":"hotel", "_id":"285"}}
{"name":"대전 MAX","location": {"lon": 127.43847029999999, "lat": 36.35157612},"area":"대전시/대전광역시","type":"MOTEL","address":"대전 동구 용전동 77-13"}
{"index":{"_index":"hotel", "_id":"286"}}
{"name":"유성 루이스","location": {"lon": 127.34105100000001, "lat": 36.35721081},"area":"대전시/대전광역시","type":"MOTEL","address":"대전 유성구 봉명동 440-3"}
{"index":{"_index":"hotel", "_id":"287"}}
{"name":"유성 잉카의 태양","location": {"lon": 127.35073179999999, "lat": 36.35648708},"area":"대전시/대전광역시","type":"MOTEL","address":"대전 유성구 봉명동 692-7"}
{"index":{"_index":"hotel", "_id":"288"}}
{"name":"유성 시애틀","location": {"lon": 127.34538529999999, "lat": 36.3567694},"area":"대전시/대전광역시","type":"MOTEL","address":"대전 유성구 봉명동 538-3"}
{"index":{"_index":"hotel", "_id":"289"}}
{"name":"유성 피카소","location": {"lon": 127.3377049, "lat": 36.35634797},"area":"대전시/대전광역시","type":"MOTEL","address":"대전 유성구 봉명동 469-41"}
{"index":{"_index":"hotel", "_id":"290"}}
{"name":"파주 IMT","location": {"lon": 126.6878457, "lat": 37.77734104},"area":"경기도","type":"MOTEL","address":"경기 파주시 탄현면 성동리 679-1"}
{"index":{"_index":"hotel", "_id":"291"}}
{"name":"유성 리츠텔","location": {"lon": 127.34559899999999, "lat": 36.35672552},"area":"대전시/대전광역시","type":"MOTEL","address":"대전 유성구 봉명동 538-13"}
{"index":{"_index":"hotel", "_id":"292"}}
{"name":"유성 맨하탄","location": {"lon": 127.34602120000001, "lat": 36.35747768},"area":"대전시/대전광역시","type":"MOTEL","address":"대전 유성구 봉명동 633-3"}
{"index":{"_index":"hotel", "_id":"293"}}
{"name":"유성 스파타워","location": {"lon": 127.3508716, "lat": 36.35586666},"area":"대전시/대전광역시","type":"MOTEL","address":"대전 유성구 봉명동 694-1"}
{"index":{"_index":"hotel", "_id":"294"}}
{"name":"유성 체리","location": {"lon": 127.3511078, "lat": 36.35585515},"area":"대전시/대전광역시","type":"MOTEL","address":"대전 유성구 봉명동 694-2"}
{"index":{"_index":"hotel", "_id":"295"}}
{"name":"유성 시나브로","location": {"lon": 127.3491693, "lat": 36.35687736},"area":"대전시/대전광역시","type":"MOTEL","address":"대전 유성구 봉명동 658-3"}
{"index":{"_index":"hotel", "_id":"296"}}
{"name":"대전 2050","location": {"lon": 127.3897619, "lat": 36.31358907},"area":"대전시/대전광역시","type":"MOTEL","address":"대전 중구 유천동 335-75"}
{"index":{"_index":"hotel", "_id":"297"}}
{"name":"대전 로즈마리","location": {"lon": 127.43059740000001, "lat": 36.31940755},"area":"대전시/대전광역시","type":"MOTEL","address":"대전 중구 대사동 64-10"}
{"index":{"_index":"hotel", "_id":"298"}}
{"name":"대전 유토","location": {"lon": 127.429819, "lat": 36.32367472},"area":"대전시/대전광역시","type":"MOTEL","address":"대전 중구 대흥동 31-7"}
{"index":{"_index":"hotel", "_id":"299"}}
{"name":"유천 풀하우스","location": {"lon": 127.3926463, "lat": 36.3150107},"area":"대전시/대전광역시","type":"MOTEL","address":"대전 중구 유천동 330-27"}
{"index":{"_index":"hotel", "_id":"300"}}
{"name":"대전 레이크","location": {"lon": 127.4161305, "lat": 36.32126114},"area":"대전시/대전광역시","type":"MOTEL","address":"대전 중구 대사동 248-269"}
{"index":{"_index":"hotel", "_id":"301"}}
{"name":"대전 콩","location": {"lon": 127.41795590000001, "lat": 36.33610256},"area":"대전시/대전광역시","type":"MOTEL","address":"대전 중구 선화동 116-2"}
{"index":{"_index":"hotel", "_id":"302"}}
{"name":"대전 잉카의태양","location": {"lon": 127.39347450000001, "lat": 36.31671301},"area":"대전시/대전광역시","type":"MOTEL","address":"대전 중구 유천동 306-10"}
{"index":{"_index":"hotel", "_id":"303"}}
{"name":"선화 리무진","location": {"lon": 127.423702, "lat": 36.32928025},"area":"대전시/대전광역시","type":"MOTEL","address":"대전 중구 선화동 32-2"}
{"index":{"_index":"hotel", "_id":"304"}}
{"name":"대전 무비스","location": {"lon": 127.43021770000001, "lat": 36.32650298},"area":"대전시/대전광역시","type":"MOTEL","address":"대전 중구 대흥동 4-7"}
{"index":{"_index":"hotel", "_id":"305"}}
{"name":"대전 코자자","location": {"lon": 127.3924152, "lat": 36.31421842},"area":"대전시/대전광역시","type":"MOTEL","address":"대전 중구 유천동 331-11"}
{"index":{"_index":"hotel", "_id":"306"}}
{"name":"대전 짝","location": {"lon": 127.4168345, "lat": 36.32129834},"area":"대전시/대전광역시","type":"MOTEL","address":"대전 중구 대사동 248-345"}
{"index":{"_index":"hotel", "_id":"307"}}
{"name":"상봉 유토피아","location": {"lon": 127.09387120000001, "lat": 37.5957161},"area":"서울시/서울특별시","type":"MOTEL","address":"서울 중랑구 망우동  506-12"}
{"index":{"_index":"hotel", "_id":"308"}}
{"name":"고양 리베라","location": {"lon": 126.7478081, "lat": 37.67516695},"area":"경기도","type":"MOTEL","address":"경기 고양시 일산서구 대화동 2224-2"}
{"index":{"_index":"hotel", "_id":"309"}}
{"name":"은행 자우리","location": {"lon": 127.42365020000001, "lat": 36.32464478},"area":"대전시/대전광역시","type":"MOTEL","address":"대전 중구 대흥동 452-30"}
{"index":{"_index":"hotel", "_id":"310"}}
{"name":"대전 몽","location": {"lon": 127.43033740000001, "lat": 36.32558696},"area":"대전시/대전광역시","type":"MOTEL","address":"대전 중구 대흥동 92-5"}
{"index":{"_index":"hotel", "_id":"311"}}
{"name":"대전 BnB","location": {"lon": 127.4287759, "lat": 36.32597467},"area":"대전시/대전광역시","type":"MOTEL","address":"대전 중구 대흥동 133"}
{"index":{"_index":"hotel", "_id":"312"}}
{"name":"대전 L호텔","location": {"lon": 127.4206334, "lat": 36.33606433},"area":"대전시/대전광역시","type":"MOTEL","address":"대전 중구 선화동 91-6"}
{"index":{"_index":"hotel", "_id":"313"}}
{"name":"대전 리버사이드","location": {"lon": 127.42153219999999, "lat": 36.33584128},"area":"대전시/대전광역시","type":"MOTEL","address":"대전 중구 선화동 94-2"}
{"index":{"_index":"hotel", "_id":"314"}}
{"name":"대전 앙코르","location": {"lon": 127.4310173, "lat": 36.32042977},"area":"대전시/대전광역시","type":"MOTEL","address":"대전 중구 대흥동  49-6번지"}
{"index":{"_index":"hotel", "_id":"315"}}
{"name":"대전 산토리니","location": {"lon": 127.4309384, "lat": 36.32067157},"area":"대전시/대전광역시","type":"MOTEL","address":"대전 중구 대흥동 49-4"}
{"index":{"_index":"hotel", "_id":"316"}}
{"name":"대전 New앨리스","location": {"lon": 127.41706310000001, "lat": 36.33659953},"area":"대전시/대전광역시","type":"MOTEL","address":"대전 중구 선화동 104-11"}
{"index":{"_index":"hotel", "_id":"317"}}
{"name":"대전 카이텔","location": {"lon": 127.419678643, "lat": 36.3358117604},"area":"대전시/대전광역시","type":"MOTEL","address":"대전 중구 선화동 88-1"}
{"index":{"_index":"hotel", "_id":"318"}}
{"name":"대전 킹모텔","location": {"lon": 127.42064409999999, "lat": 36.33640674},"area":"대전시/대전광역시","type":"MOTEL","address":"대전 중구 선화동 87-16"}
{"index":{"_index":"hotel", "_id":"319"}}
{"name":"대전 YOU","location": {"lon": 127.4206077, "lat": 36.33542639},"area":"대전시/대전광역시","type":"MOTEL","address":"대전 중구 선화동  94-26"}
{"index":{"_index":"hotel", "_id":"320"}}
{"name":"대전 109","location": {"lon": 127.3939765, "lat": 36.31557587},"area":"대전시/대전광역시","type":"MOTEL","address":"대전 중구 유천동 300-23"}
{"index":{"_index":"hotel", "_id":"321"}}
{"name":"명지 JK","location": {"lon": 128.9285159, "lat": 35.10017758},"area":"부산시/부산광역시","type":"MOTEL","address":"부산 강서구 명지동 1530-16"}
{"index":{"_index":"hotel", "_id":"322"}}
{"name":"명지 W","location": {"lon": 128.9287705, "lat": 35.10074669},"area":"부산시/부산광역시","type":"MOTEL","address":"부산 강서구 명지동 1532-12"}
{"index":{"_index":"hotel", "_id":"323"}}
{"name":"구서역 SHOW","location": {"lon": 129.0917138, "lat": 35.24605675},"area":"부산시/부산광역시","type":"MOTEL","address":"부산 금정구 구서동 84-10"}
{"index":{"_index":"hotel", "_id":"324"}}
{"name":"구서 V","location": {"lon": 129.0916668, "lat": 35.24798962},"area":"부산시/부산광역시","type":"MOTEL","address":"부산 금정구 구서동 85-29"}
{"index":{"_index":"hotel", "_id":"325"}}
{"name":"기장 오즈","location": {"lon": 129.2271586, "lat": 35.22080817},"area":"부산시/부산광역시","type":"MOTEL","address":"부산 기장군 기장읍 대변리 277-1"}
{"index":{"_index":"hotel", "_id":"326"}}
{"name":"기장 V","location": {"lon": 129.2257524, "lat": 35.21788918},"area":"부산시/부산광역시","type":"MOTEL","address":"부산 기장군 기장읍 연화리 214-6"}
{"index":{"_index":"hotel", "_id":"327"}}
{"name":"대연 V","location": {"lon": 129.0862472, "lat": 35.13529133},"area":"부산시/부산광역시","type":"MOTEL","address":"부산 남구 대연동 1763-14"}
{"index":{"_index":"hotel", "_id":"328"}}
{"name":"범일 더디자인","location": {"lon": 129.0569238, "lat": 35.14058339},"area":"부산시/부산광역시","type":"MOTEL","address":"부산 동구 범일동 62-735"}
{"index":{"_index":"hotel", "_id":"329"}}
{"name":"동래 VOV","location": {"lon": 129.0832844, "lat": 35.20458355},"area":"부산시/부산광역시","type":"MOTEL","address":"부산 동래구 명륜동 374"}
{"index":{"_index":"hotel", "_id":"330"}}
{"name":"온천장 9월","location": {"lon": 129.07900800000002, "lat": 35.21565113},"area":"부산시/부산광역시","type":"MOTEL","address":"부산 동래구 온천동 444-47"}
{"index":{"_index":"hotel", "_id":"331"}}
{"name":"온천장 G&G","location": {"lon": 129.07925490000002, "lat": 35.21585956},"area":"부산시/부산광역시","type":"MOTEL","address":"부산 동래구 온천동 450-3"}
{"index":{"_index":"hotel", "_id":"332"}}
{"name":"온천장 보노","location": {"lon": 129.0792348, "lat": 35.21558596},"area":"부산시/부산광역시","type":"MOTEL","address":"부산 동래구 온천동 450-5"}
{"index":{"_index":"hotel", "_id":"333"}}
{"name":"온천장 라찌","location": {"lon": 129.0800314, "lat": 35.21479007},"area":"부산시/부산광역시","type":"MOTEL","address":"부산 동래구 온천동 456-16"}
{"index":{"_index":"hotel", "_id":"334"}}
{"name":"온천장 Oh","location": {"lon": 129.0795252, "lat": 35.21612526},"area":"부산시/부산광역시","type":"MOTEL","address":"부산 동래구 온천동  450-1"}
{"index":{"_index":"hotel", "_id":"335"}}
{"name":"범천 이그니스","location": {"lon": 129.0616397, "lat": 35.14835055},"area":"부산시/부산광역시","type":"MOTEL","address":"부산 부산진구 범천동 859-31"}
{"index":{"_index":"hotel", "_id":"336"}}
{"name":"서면 콤마","location": {"lon": 129.0601395, "lat": 35.1485527},"area":"부산시/부산광역시","type":"MOTEL","address":"부산 부산진구 범천동 858-65"}
{"index":{"_index":"hotel", "_id":"337"}}
{"name":"서면 IB","location": {"lon": 129.0572742, "lat": 35.1522349},"area":"부산시/부산광역시","type":"MOTEL","address":"부산 부산진구 부전동 522-28"}
{"index":{"_index":"hotel", "_id":"338"}}
{"name":"서면 아이유","location": {"lon": 129.05703490000002, "lat": 35.15249129},"area":"부산시/부산광역시","type":"MOTEL","address":"부산 부산진구 부전동 522-25"}
{"index":{"_index":"hotel", "_id":"339"}}
{"name":"서면 WE","location": {"lon": 129.0555502, "lat": 35.15366277},"area":"부산시/부산광역시","type":"MOTEL","address":"부산 부산진구 부전동 525-11"}
{"index":{"_index":"hotel", "_id":"340"}}
{"name":"서면 짝","location": {"lon": 129.0564986, "lat": 35.15297981},"area":"부산시/부산광역시","type":"MOTEL","address":"부산 부산진구 부전동 524-48"}
{"index":{"_index":"hotel", "_id":"341"}}
{"name":"서면 호텔미니","location": {"lon": 129.05481740000002, "lat": 35.1529723},"area":"부산시/부산광역시","type":"MOTEL","address":"부산 부산진구 부전동 457-4"}
{"index":{"_index":"hotel", "_id":"342"}}
{"name":"서면 라이온","location": {"lon": 129.05614920000002, "lat": 35.15514133},"area":"부산시/부산광역시","type":"MOTEL","address":"부산 부산진구 부전동 519-26"}
{"index":{"_index":"hotel", "_id":"343"}}
{"name":"서면 G&G","location": {"lon": 129.0603453, "lat": 35.14870781},"area":"부산시/부산광역시","type":"MOTEL","address":"부산 부산진구 범천동 858-67"}
{"index":{"_index":"hotel", "_id":"344"}}
{"name":"상봉 공감","location": {"lon": 127.0903517, "lat": 37.59554225},"area":"서울시/서울특별시","type":"MOTEL","address":"서울 중랑구 상봉동 88-29"}
{"index":{"_index":"hotel", "_id":"345"}}
{"name":"구포 IU","location": {"lon": 129.00106499999998, "lat": 35.20899512},"area":"부산시/부산광역시","type":"MOTEL","address":"부산 북구 구포동 500"}
{"index":{"_index":"hotel", "_id":"346"}}
{"name":"사상 더파티","location": {"lon": 128.97958640000002, "lat": 35.16151403},"area":"부산시/부산광역시","type":"MOTEL","address":"부산 사상구 괘법동 566-6"}
{"index":{"_index":"hotel", "_id":"347"}}
{"name":"사상 V1STORY","location": {"lon": 128.9866605, "lat": 35.15205479},"area":"부산시/부산광역시","type":"MOTEL","address":"부산 사상구 감전동 155-21"}
{"index":{"_index":"hotel", "_id":"348"}}
{"name":"사상 라찌","location": {"lon": 128.98379609999998, "lat": 35.16134061},"area":"부산시/부산광역시","type":"MOTEL","address":"부산 사상구 괘법동 559-10"}
{"index":{"_index":"hotel", "_id":"349"}}
{"name":"사상 호텔V1","location": {"lon": 128.9776747, "lat": 35.16177957},"area":"부산시/부산광역시","type":"MOTEL","address":"부산 사상구 괘법동 569-16"}
{"index":{"_index":"hotel", "_id":"350"}}
{"name":"사상 보브","location": {"lon": 128.977439, "lat": 35.18557806},"area":"부산시/부산광역시","type":"MOTEL","address":"부산 사상구 삼락동 353-2"}
{"index":{"_index":"hotel", "_id":"351"}}
{"name":"괴정 와우","location": {"lon": 128.99333629999998, "lat": 35.10058152},"area":"부산시/부산광역시","type":"MOTEL","address":"부산 사하구 괴정동 1002-1"}
{"index":{"_index":"hotel", "_id":"352"}}
{"name":"괴정 GT","location": {"lon": 128.9907446, "lat": 35.09862349},"area":"부산시/부산광역시","type":"MOTEL","address":"부산 사하구 괴정동 858"}
{"index":{"_index":"hotel", "_id":"353"}}
{"name":"하단 퀸","location": {"lon": 128.9644227, "lat": 35.10717449},"area":"부산시/부산광역시","type":"MOTEL","address":"부산 사하구 하단동 515-21"}
{"index":{"_index":"hotel", "_id":"354"}}
{"name":"하단 E","location": {"lon": 128.9656983, "lat": 35.10877954},"area":"부산시/부산광역시","type":"MOTEL","address":"부산 사하구 하단동 513-3"}
{"index":{"_index":"hotel", "_id":"355"}}
{"name":"송도 아이비","location": {"lon": 129.0170023, "lat": 35.07718105},"area":"부산시/부산광역시","type":"MOTEL","address":"부산 서구 암남동 351-4"}
{"index":{"_index":"hotel", "_id":"356"}}
{"name":"송도 WELL","location": {"lon": 129.0137042, "lat": 35.06484282},"area":"부산시/부산광역시","type":"MOTEL","address":"부산 서구 암남동 622-57"}
{"index":{"_index":"hotel", "_id":"357"}}
{"name":"광안리 미니스토리호텔","location": {"lon": 129.1253413, "lat": 35.15644843},"area":"부산시/부산광역시","type":"MOTEL","address":"부산 수영구 민락동 181-80"}
{"index":{"_index":"hotel", "_id":"358"}}
{"name":"연산 아마레","location": {"lon": 129.0786362, "lat": 35.18642051},"area":"부산시/부산광역시","type":"MOTEL","address":"부산 연제구 연산동 1255-6"}
{"index":{"_index":"hotel", "_id":"359"}}
{"name":"연산 카리브","location": {"lon": 129.0828495, "lat": 35.1854902},"area":"부산시/부산광역시","type":"MOTEL","address":"부산 연제구 연산동 739-8"}
{"index":{"_index":"hotel", "_id":"360"}}
{"name":"연산 369","location": {"lon": 129.0797141, "lat": 35.18564503},"area":"부산시/부산광역시","type":"MOTEL","address":"부산 연제구 연산동 1244-4"}
{"index":{"_index":"hotel", "_id":"361"}}
{"name":"연산 이즈","location": {"lon": 129.0798732, "lat": 35.18551253},"area":"부산시/부산광역시","type":"MOTEL","address":"부산 연제구 연산동 1244-18"}
{"index":{"_index":"hotel", "_id":"362"}}
{"name":"연산 9월","location": {"lon": 129.0787824, "lat": 35.18664509},"area":"부산시/부산광역시","type":"MOTEL","address":"부산 연제구 연산동 1143-9"}
{"index":{"_index":"hotel", "_id":"363"}}
{"name":"연산 토곡 N","location": {"lon": 129.1065374, "lat": 35.18515964},"area":"부산시/부산광역시","type":"MOTEL","address":"부산 연제구 연산동 417-12"}
{"index":{"_index":"hotel", "_id":"364"}}
{"name":"연산 아바-AVA","location": {"lon": 129.0792669, "lat": 35.18549771},"area":"부산시/부산광역시","type":"MOTEL","address":"부산 연제구 연산동 1279-6"}
{"index":{"_index":"hotel", "_id":"365"}}
{"name":"연산 MU","location": {"lon": 129.0795406, "lat": 35.18573092},"area":"부산시/부산광역시","type":"MOTEL","address":"부산 연제구 연산동 1244-17"}
{"index":{"_index":"hotel", "_id":"366"}}
{"name":"영도 나인","location": {"lon": 129.0383937, "lat": 35.09029403},"area":"부산시/부산광역시","type":"MOTEL","address":"부산 영도구 남항동1가 86-4"}
{"index":{"_index":"hotel", "_id":"367"}}
{"name":"부산역 에이스원","location": {"lon": 129.0376513, "lat": 35.10857151},"area":"부산시/부산광역시","type":"MOTEL","address":"부산 중구 중앙동4가 81-8"}
{"index":{"_index":"hotel", "_id":"368"}}
{"name":"해운대 MK스테이","location": {"lon": 129.1579512, "lat": 35.16106953},"area":"부산시/부산광역시","type":"MOTEL","address":"부산 해운대구 우동 636-5"}
{"index":{"_index":"hotel", "_id":"369"}}
{"name":"해운대 투헤븐","location": {"lon": 129.1602408, "lat": 35.16084487},"area":"부산시/부산광역시","type":"MOTEL","address":"부산 해운대구 우동 1366-1"}
{"index":{"_index":"hotel", "_id":"370"}}
{"name":"해운대 호텔 준","location": {"lon": 129.1587315, "lat": 35.16202886},"area":"부산시/부산광역시","type":"MOTEL","address":"부산 해운대구 우동 541-20"}
{"index":{"_index":"hotel", "_id":"371"}}
{"name":"해운대 와우","location": {"lon": 129.1591807, "lat": 35.16058984},"area":"부산시/부산광역시","type":"MOTEL","address":"부산 해운대구 우동 635-3"}
{"index":{"_index":"hotel", "_id":"372"}}
{"name":"해운대 호텔 폭시","location": {"lon": 129.15830309999998, "lat": 35.16126512},"area":"부산시/부산광역시","type":"MOTEL","address":"부산 해운대구 우동 636-4"}
{"index":{"_index":"hotel", "_id":"373"}}
{"name":"재송 세븐","location": {"lon": 129.1217671, "lat": 35.18409345},"area":"부산시/부산광역시","type":"MOTEL","address":"부산 해운대구 재송동 1095-4"}
{"index":{"_index":"hotel", "_id":"374"}}
{"name":"해운대 호텔 V","location": {"lon": 129.1577371, "lat": 35.1612752},"area":"부산시/부산광역시","type":"MOTEL","address":"부산 해운대구 우동 637-6"}
{"index":{"_index":"hotel", "_id":"375"}}
{"name":"해운대 SS","location": {"lon": 129.15808470000002, "lat": 35.16147086},"area":"부산시/부산광역시","type":"MOTEL","address":"부산 해운대구 우동 637-14"}
{"index":{"_index":"hotel", "_id":"376"}}
{"name":"해운대 호텔 여우비","location": {"lon": 129.15799040000002, "lat": 35.16222229},"area":"부산시/부산광역시","type":"MOTEL","address":"부산 해운대구 우동 638-1"}
{"index":{"_index":"hotel", "_id":"377"}}
{"name":"송정 V","location": {"lon": 129.2050472, "lat": 35.18232766},"area":"부산시/부산광역시","type":"MOTEL","address":"부산 해운대구 송정동 206-18"}
{"index":{"_index":"hotel", "_id":"378"}}
{"name":"해운대 윈호텔","location": {"lon": 129.1575853, "lat": 35.16084536},"area":"부산시/부산광역시","type":"MOTEL","address":"부산 해운대구 우동 636-9"}
{"index":{"_index":"hotel", "_id":"379"}}
{"name":"해운대 호텔 G&G","location": {"lon": 129.15833419999998, "lat": 35.1616106},"area":"부산시/부산광역시","type":"MOTEL","address":"부산 해운대구 우동 637-2"}
{"index":{"_index":"hotel", "_id":"380"}}
{"name":"해운대 호텔WA","location": {"lon": 129.1572844, "lat": 35.16158245},"area":"부산시/부산광역시","type":"MOTEL","address":"부산 해운대구 우동 638-15"}
{"index":{"_index":"hotel", "_id":"381"}}
{"name":"장안 동경 호텔","location": {"lon": 127.0689713, "lat": 37.56910712},"area":"서울시/서울특별시","type":"MOTEL","address":"서울 동대문구 장안동 373-4"}
{"index":{"_index":"hotel", "_id":"382"}}
{"name":"만덕 W","location": {"lon": 129.0469219, "lat": 35.21109754},"area":"부산시/부산광역시","type":"MOTEL","address":"부산 북구 만덕동 74-5"}
{"index":{"_index":"hotel", "_id":"383"}}
{"name":"역삼 VOLE","location": {"lon": 127.03309750000001, "lat": 37.50679143},"area":"서울시/서울특별시","type":"MOTEL","address":"서울 강남구 역삼동 606"}
{"index":{"_index":"hotel", "_id":"384"}}
{"name":"역삼 벤","location": {"lon": 127.03988030000001, "lat": 37.50072377},"area":"서울시/서울특별시","type":"MOTEL","address":"서울 강남구 역삼동 718-28"}
{"index":{"_index":"hotel", "_id":"385"}}
{"name":"양평 뉴욕","location": {"lon": 127.4811564, "lat": 37.48766641},"area":"경기도","type":"MOTEL","address":"경기 양평군 강상면 교평리 396-2"}
{"index":{"_index":"hotel", "_id":"386"}}
{"name":"강남 시애틀","location": {"lon": 127.02998059999999, "lat": 37.49585405},"area":"서울시/서울특별시","type":"MOTEL","address":"서울 강남구 역삼동 826-41"}
{"index":{"_index":"hotel", "_id":"387"}}
{"name":"천호 펠리스","location": {"lon": 127.12630490000001, "lat": 37.53873935},"area":"서울시/서울특별시","type":"MOTEL","address":"서울 강동구 천호동 454-30"}
{"index":{"_index":"hotel", "_id":"388"}}
{"name":"천호 프라자","location": {"lon": 127.1287969, "lat": 37.54036926},"area":"서울시/서울특별시","type":"MOTEL","address":"서울 강동구 천호동 550"}
{"index":{"_index":"hotel", "_id":"389"}}
{"name":"천호 UNI","location": {"lon": 127.126112, "lat": 37.53977029},"area":"서울시/서울특별시","type":"MOTEL","address":"서울 강동구 천호동 416-10"}
{"index":{"_index":"hotel", "_id":"390"}}
{"name":"천호 ON","location": {"lon": 127.12198500000001, "lat": 37.54577528},"area":"서울시/서울특별시","type":"MOTEL","address":"서울 강동구 천호동 328"}
{"index":{"_index":"hotel", "_id":"391"}}
{"name":"부천 호텔버스","location": {"lon": 126.7790023, "lat": 37.48552024},"area":"경기도","type":"MOTEL","address":"경기 부천시 원미구 심곡동 391-1"}
{"index":{"_index":"hotel", "_id":"392"}}
{"name":"수유 짝","location": {"lon": 127.0254781, "lat": 37.6368826},"area":"서울시/서울특별시","type":"MOTEL","address":"서울 강북구 번동 446-39"}
{"index":{"_index":"hotel", "_id":"393"}}
{"name":"수유 L","location": {"lon": 127.02494320000001, "lat": 37.63637816},"area":"서울시/서울특별시","type":"MOTEL","address":"서울 강북구 번동 446-59"}
{"index":{"_index":"hotel", "_id":"394"}}
{"name":"수유 M","location": {"lon": 127.0250293, "lat": 37.63646103},"area":"서울시/서울특별시","type":"MOTEL","address":"서울 강북구 번동 446-58"}
{"index":{"_index":"hotel", "_id":"395"}}
{"name":"수유 피카소","location": {"lon": 127.0222827, "lat": 37.63532995},"area":"서울시/서울특별시","type":"MOTEL","address":"서울 강북구 수유동 45-52"}
{"index":{"_index":"hotel", "_id":"396"}}
{"name":"수유 리치","location": {"lon": 127.0219288, "lat": 37.63408305},"area":"서울시/서울특별시","type":"MOTEL","address":"서울 강북구 수유동 48-26"}
{"index":{"_index":"hotel", "_id":"397"}}
{"name":"수유 Soo","location": {"lon": 127.0205876, "lat": 37.63473561},"area":"서울시/서울특별시","type":"MOTEL","address":"서울 강북구 수유동 47-63"}
{"index":{"_index":"hotel", "_id":"398"}}
{"name":"수유 파티오","location": {"lon": 127.02453059999999, "lat": 37.63581964},"area":"서울시/서울특별시","type":"MOTEL","address":"서울 강북구 번동 446-6"}
{"index":{"_index":"hotel", "_id":"399"}}
{"name":"화곡 쟈스민","location": {"lon": 126.84073980000001, "lat": 37.52903357},"area":"서울시/서울특별시","type":"MOTEL","address":"서울 강서구 화곡동 923-8"}
{"index":{"_index":"hotel", "_id":"400"}}
{"name":"화곡 레인보우","location": {"lon": 126.8418064, "lat": 37.52968733},"area":"서울시/서울특별시","type":"MOTEL","address":"서울 강서구 화곡동 924-24"}
{"index":{"_index":"hotel", "_id":"401"}}
{"name":"화곡 초콜릿","location": {"lon": 126.84672179999998, "lat": 37.52926493},"area":"서울시/서울특별시","type":"MOTEL","address":"서울 강서구 화곡동 902-8"}
{"index":{"_index":"hotel", "_id":"402"}}
{"name":"화곡 메이-MAI","location": {"lon": 126.83970649999999, "lat": 37.52976018},"area":"서울시/서울특별시","type":"MOTEL","address":"서울 강서구 화곡동 938-5"}
{"index":{"_index":"hotel", "_id":"403"}}
{"name":"화곡 S","location": {"lon": 126.8446879, "lat": 37.53024257},"area":"서울시/서울특별시","type":"MOTEL","address":"서울 강서구 화곡동 918-23"}
{"index":{"_index":"hotel", "_id":"404"}}
{"name":"화곡 블루힐","location": {"lon": 126.84835259999998, "lat": 37.54631395},"area":"서울시/서울특별시","type":"MOTEL","address":"서울 강서구 화곡동 29-69"}
{"index":{"_index":"hotel", "_id":"405"}}
{"name":"화곡 설레임","location": {"lon": 126.84657800000001, "lat": 37.54645942},"area":"서울시/서울특별시","type":"MOTEL","address":"서울 강서구 화곡동 24-77"}
{"index":{"_index":"hotel", "_id":"406"}}
{"name":"화곡 에코","location": {"lon": 126.84716840000002, "lat": 37.54550513},"area":"서울시/서울특별시","type":"MOTEL","address":"서울 강서구 화곡동 24-150"}
{"index":{"_index":"hotel", "_id":"407"}}
{"name":"화곡 크로체","location": {"lon": 126.8479192, "lat": 37.54575477},"area":"서울시/서울특별시","type":"MOTEL","address":"서울 강서구 화곡동 29-58"}
{"index":{"_index":"hotel", "_id":"408"}}
{"name":"화곡 커플-강서구청","location": {"lon": 126.84632930000001, "lat": 37.54632935},"area":"서울시/서울특별시","type":"MOTEL","address":"서울 강서구 화곡동 24-101"}
{"index":{"_index":"hotel", "_id":"409"}}
{"name":"화곡 메이트호텔","location": {"lon": 126.840851, "lat": 37.52993112},"area":"서울시/서울특별시","type":"MOTEL","address":"서울 강서구 화곡동 921-6"}
{"index":{"_index":"hotel", "_id":"410"}}
{"name":"화곡 VOLL","location": {"lon": 126.8466369, "lat": 37.52875306},"area":"서울시/서울특별시","type":"MOTEL","address":"서울 강서구 화곡동 905-8"}
{"index":{"_index":"hotel", "_id":"411"}}
{"name":"화곡 리얼부티크호텔-구 J","location": {"lon": 126.8406475, "lat": 37.52985516},"area":"서울시/서울특별시","type":"MOTEL","address":"서울 강서구 화곡동 921-10"}
{"index":{"_index":"hotel", "_id":"412"}}
{"name":"왕십리 현대","location": {"lon": 127.0322568, "lat": 37.56117968},"area":"서울시/서울특별시","type":"MOTEL","address":"서울 성동구 하왕십리동 970-61"}
{"index":{"_index":"hotel", "_id":"413"}}
{"name":"신림 루쏘호텔","location": {"lon": 126.93192450000001, "lat": 37.4850658},"area":"서울시/서울특별시","type":"MOTEL","address":"서울 관악구 신림동 1422-9"}
{"index":{"_index":"hotel", "_id":"414"}}
{"name":"서울대 상상","location": {"lon": 126.9533382, "lat": 37.47982151},"area":"서울시/서울특별시","type":"MOTEL","address":"서울 관악구 봉천동 854-3"}
{"index":{"_index":"hotel", "_id":"415"}}
{"name":"한남 FN","location": {"lon": 127.0056524, "lat": 37.53346562},"area":"서울시/서울특별시","type":"MOTEL","address":"서울 용산구 한남동 657-104"}
{"index":{"_index":"hotel", "_id":"416"}}
{"name":"서울대 서울","location": {"lon": 126.95149270000002, "lat": 37.48039381},"area":"서울시/서울특별시","type":"MOTEL","address":"서울 관악구 봉천동 868-3"}
{"index":{"_index":"hotel", "_id":"417"}}
{"name":"신림 짝","location": {"lon": 126.93041799999999, "lat": 37.48555147},"area":"서울시/서울특별시","type":"MOTEL","address":"서울 관악구 신림동 1423-22"}
{"index":{"_index":"hotel", "_id":"418"}}
{"name":"광진 헤라","location": {"lon": 127.0742925, "lat": 37.56100935},"area":"서울시/서울특별시","type":"MOTEL","address":"서울 광진구 중곡동 611-1"}
{"index":{"_index":"hotel", "_id":"419"}}
{"name":"신촌 파르페","location": {"lon": 126.9355971, "lat": 37.55331704},"area":"서울시/서울특별시","type":"MOTEL","address":"서울 마포구 노고산동 109-6"}
{"index":{"_index":"hotel", "_id":"420"}}
{"name":"오류 갤러리아호텔","location": {"lon": 126.8456817, "lat": 37.4959697},"area":"서울시/서울특별시","type":"MOTEL","address":"서울 구로구 오류동 57"}
{"index":{"_index":"hotel", "_id":"421"}}
{"name":"오류 모나코","location": {"lon": 126.84435249999999, "lat": 37.49565081},"area":"서울시/서울특별시","type":"MOTEL","address":"서울 구로구 오류동 55-19"}
{"index":{"_index":"hotel", "_id":"422"}}
{"name":"오류 세븐","location": {"lon": 126.84550929999999, "lat": 37.49621455},"area":"서울시/서울특별시","type":"MOTEL","address":"서울 구로구 오류동 59-26"}
{"index":{"_index":"hotel", "_id":"423"}}
{"name":"오류 쎄비앙 호텔","location": {"lon": 126.84576240000001, "lat": 37.49629417},"area":"서울시/서울특별시","type":"MOTEL","address":"서울 구로구 오류동 59-37"}
{"index":{"_index":"hotel", "_id":"424"}}
{"name":"오류 리츠","location": {"lon": 126.8462366, "lat": 37.49669484},"area":"서울시/서울특별시","type":"MOTEL","address":"서울 구로구 오류동 33-57"}
{"index":{"_index":"hotel", "_id":"425"}}
{"name":"가산 뷰","location": {"lon": 126.88941670000001, "lat": 37.47834457},"area":"서울시/서울특별시","type":"MOTEL","address":"서울 금천구 가산동 140-83"}
{"index":{"_index":"hotel", "_id":"426"}}
{"name":"독산 발렌타인","location": {"lon": 126.8968737, "lat": 37.46530109},"area":"서울시/서울특별시","type":"MOTEL","address":"서울 금천구 독산동 1008-12"}
{"index":{"_index":"hotel", "_id":"427"}}
{"name":"장안 넥스","location": {"lon": 127.0691784, "lat": 37.56778434},"area":"서울시/서울특별시","type":"MOTEL","address":"서울 동대문구 장안동 364-6"}
{"index":{"_index":"hotel", "_id":"428"}}
{"name":"청량리 XYM","location": {"lon": 127.0458781, "lat": 37.58122772},"area":"서울시/서울특별시","type":"MOTEL","address":"서울 동대문구 청량리동 251"}
{"index":{"_index":"hotel", "_id":"429"}}
{"name":"동대문 M","location": {"lon": 127.02682920000001, "lat": 37.57529063},"area":"서울시/서울특별시","type":"MOTEL","address":"서울 동대문구 신설동 92-125"}
{"index":{"_index":"hotel", "_id":"430"}}
{"name":"장안 이지호텔","location": {"lon": 127.0714172, "lat": 37.57005712},"area":"서울시/서울특별시","type":"MOTEL","address":"서울 동대문구 장안동 345-17"}
{"index":{"_index":"hotel", "_id":"431"}}
{"name":"장안 디바","location": {"lon": 127.0693688, "lat": 37.5680257},"area":"서울시/서울특별시","type":"MOTEL","address":"서울 동대문구 장안동 364-4"}
{"index":{"_index":"hotel", "_id":"432"}}
{"name":"장안 수","location": {"lon": 127.07017590000001, "lat": 37.56929022},"area":"서울시/서울특별시","type":"MOTEL","address":"서울 동대문구 장안동 365-9"}
{"index":{"_index":"hotel", "_id":"433"}}
{"name":"장안 M&M2;","location": {"lon": 127.0711287, "lat": 37.5618258},"area":"서울시/서울특별시","type":"MOTEL","address":"서울 동대문구 장안동 456-4"}
{"index":{"_index":"hotel", "_id":"434"}}
{"name":"경희대 Soo","location": {"lon": 127.0549997, "lat": 37.58897957},"area":"서울시/서울특별시","type":"MOTEL","address":"서울 동대문구 휘경동 336-2"}
{"index":{"_index":"hotel", "_id":"435"}}
{"name":"장안 비브 클래식","location": {"lon": 127.0694731, "lat": 37.56818421},"area":"서울시/서울특별시","type":"MOTEL","address":"서울 동대문구 장안동 364-3"}
{"index":{"_index":"hotel", "_id":"436"}}
{"name":"신촌 그랑프리","location": {"lon": 126.93629820000001, "lat": 37.55390126},"area":"서울시/서울특별시","type":"MOTEL","address":"서울 마포구 노고산동 106-10"}
{"index":{"_index":"hotel", "_id":"437"}}
{"name":"신촌 시크릿","location": {"lon": 126.9363758, "lat": 37.55325619},"area":"서울시/서울특별시","type":"MOTEL","address":"서울 마포구 노고산동 106-48"}
{"index":{"_index":"hotel", "_id":"438"}}
{"name":"신촌 위드","location": {"lon": 126.9355604, "lat": 37.55388645},"area":"서울시/서울특별시","type":"MOTEL","address":"서울 마포구 노고산동 106-91"}
{"index":{"_index":"hotel", "_id":"439"}}
{"name":"신촌 S호텔","location": {"lon": 126.93507620000001, "lat": 37.55361949},"area":"서울시/서울특별시","type":"MOTEL","address":"서울 마포구 노고산동 109-154"}
{"index":{"_index":"hotel", "_id":"440"}}
{"name":"신촌 VOGUE","location": {"lon": 126.9360364, "lat": 37.55310824},"area":"서울시/서울특별시","type":"MOTEL","address":"서울 마포구 노고산동 106-69"}
{"index":{"_index":"hotel", "_id":"441"}}
{"name":"신촌 메이저","location": {"lon": 126.9353887, "lat": 37.55349352},"area":"서울시/서울특별시","type":"MOTEL","address":"서울 마포구 노고산동 109-62"}
{"index":{"_index":"hotel", "_id":"442"}}
{"name":"신촌 라뉘호텔","location": {"lon": 126.9362216, "lat": 37.55349397},"area":"서울시/서울특별시","type":"MOTEL","address":"서울 마포구 노고산동 106-15"}
{"index":{"_index":"hotel", "_id":"443"}}
{"name":"합정 써클호텔","location": {"lon": 126.91075479999999, "lat": 37.54885715},"area":"서울시/서울특별시","type":"MOTEL","address":"서울 마포구 합정동 382-17"}
{"index":{"_index":"hotel", "_id":"444"}}
{"name":"신촌 가을","location": {"lon": 126.9380569, "lat": 37.5567061},"area":"서울시/서울특별시","type":"MOTEL","address":"서울 서대문구 창천동 29-41"}
{"index":{"_index":"hotel", "_id":"445"}}
{"name":"신촌 이채호텔","location": {"lon": 126.9384054, "lat": 37.5568144},"area":"서울시/서울특별시","type":"MOTEL","address":"서울 서대문구 창천동 29-5"}
{"index":{"_index":"hotel", "_id":"446"}}
{"name":"신촌 크럭스","location": {"lon": 126.9380569, "lat": 37.5567061},"area":"서울시/서울특별시","type":"MOTEL","address":"서울 서대문구 창천동 29-41"}
{"index":{"_index":"hotel", "_id":"447"}}
{"name":"신촌 피오나","location": {"lon": 126.9398133, "lat": 37.55677549},"area":"서울시/서울특별시","type":"MOTEL","address":"서울 서대문구 창천동 20-56"}
{"index":{"_index":"hotel", "_id":"448"}}
{"name":"신촌 이젠","location": {"lon": 126.93952379999999, "lat": 37.55643656},"area":"서울시/서울특별시","type":"MOTEL","address":"서울 서대문구 창천동 20-38"}
{"index":{"_index":"hotel", "_id":"449"}}
{"name":"서초 A7호텔","location": {"lon": 127.013333, "lat": 37.48608298},"area":"서울시/서울특별시","type":"MOTEL","address":"서울 서초구 서초동 1593-21"}
{"index":{"_index":"hotel", "_id":"450"}}
{"name":"서초 IMT1","location": {"lon": 127.0125732, "lat": 37.48608306},"area":"서울시/서울특별시","type":"MOTEL","address":"서울 서초구 서초동 1591-7"}
{"index":{"_index":"hotel", "_id":"451"}}
{"name":"서초 오슬로","location": {"lon": 127.01296210000001, "lat": 37.48611906},"area":"서울시/서울특별시","type":"MOTEL","address":"서울 서초구 서초동 1593-14"}
{"index":{"_index":"hotel", "_id":"452"}}
{"name":"서초 쉼표","location": {"lon": 127.02920729999998, "lat": 37.48467094},"area":"서울시/서울특별시","type":"MOTEL","address":"서울 서초구 서초동 1355-20"}
{"index":{"_index":"hotel", "_id":"453"}}
{"name":"서초 시네마","location": {"lon": 127.0104845, "lat": 37.49215605},"area":"서울시/서울특별시","type":"MOTEL","address":"서울 서초구 서초동 1554-12"}
{"index":{"_index":"hotel", "_id":"454"}}
{"name":"왕십리 썬","location": {"lon": 127.0348338, "lat": 37.56326566},"area":"서울시/서울특별시","type":"MOTEL","address":"서울 성동구 도선동 115"}
{"index":{"_index":"hotel", "_id":"455"}}
{"name":"왕십리 메종","location": {"lon": 127.0355264, "lat": 37.56297353},"area":"서울시/서울특별시","type":"MOTEL","address":"서울 성동구 도선동 34"}
{"index":{"_index":"hotel", "_id":"456"}}
{"name":"왕십리 컬리넌","location": {"lon": 127.03481540000001, "lat": 37.56263136},"area":"서울시/서울특별시","type":"MOTEL","address":"서울 성동구 도선동 86"}
{"index":{"_index":"hotel", "_id":"457"}}
{"name":"장안 JJ","location": {"lon": 127.06084229999999, "lat": 37.56143871},"area":"서울시/서울특별시","type":"MOTEL","address":"서울 성동구 용답동 228-6"}
{"index":{"_index":"hotel", "_id":"458"}}
{"name":"성신여대 탑텔","location": {"lon": 127.0156662, "lat": 37.5914925},"area":"서울시/서울특별시","type":"MOTEL","address":"서울 성북구 동소문동5가 59-4"}
{"index":{"_index":"hotel", "_id":"459"}}
{"name":"성신여대 샤미소","location": {"lon": 127.01795359999998, "lat": 37.59251931},"area":"서울시/서울특별시","type":"MOTEL","address":"서울 성북구 동선동1가 88-1"}
{"index":{"_index":"hotel", "_id":"460"}}
{"name":"신천 퍼니","location": {"lon": 127.0821787, "lat": 37.51129773},"area":"서울시/서울특별시","type":"MOTEL","address":"서울 송파구 잠실동 181-12"}
{"index":{"_index":"hotel", "_id":"461"}}
{"name":"신천 플렉스","location": {"lon": 127.08058490000002, "lat": 37.51006626},"area":"서울시/서울특별시","type":"MOTEL","address":"서울 송파구 잠실동 193-1"}
{"index":{"_index":"hotel", "_id":"462"}}
{"name":"신천 MW","location": {"lon": 127.08342739999999, "lat": 37.51125001},"area":"서울시/서울특별시","type":"MOTEL","address":"서울 송파구 잠실동 184-20"}
{"index":{"_index":"hotel", "_id":"463"}}
{"name":"신천 WE2","location": {"lon": 127.0794729, "lat": 37.5110437},"area":"서울시/서울특별시","type":"MOTEL","address":"서울 송파구 잠실동 176-9"}
{"index":{"_index":"hotel", "_id":"464"}}
{"name":"잠실 아모르","location": {"lon": 127.1100138, "lat": 37.51558549},"area":"서울시/서울특별시","type":"MOTEL","address":"서울 송파구 방이동 38-2"}
{"index":{"_index":"hotel", "_id":"465"}}
{"name":"신천 다비드","location": {"lon": 127.07926940000002, "lat": 37.51106546},"area":"서울시/서울특별시","type":"MOTEL","address":"서울 송파구 잠실동 176-1"}
{"index":{"_index":"hotel", "_id":"466"}}
{"name":"신천 FORM","location": {"lon": 127.0794729, "lat": 37.5110437},"area":"서울시/서울특별시","type":"MOTEL","address":"서울 송파구 잠실동 176-9"}
{"index":{"_index":"hotel", "_id":"467"}}
{"name":"잠실 블루원","location": {"lon": 127.1140543, "lat": 37.51567176},"area":"서울시/서울특별시","type":"MOTEL","address":"서울 송파구 방이동 49-9"}
{"index":{"_index":"hotel", "_id":"468"}}
{"name":"잠실 첼로","location": {"lon": 127.1096205, "lat": 37.51584895},"area":"서울시/서울특별시","type":"MOTEL","address":"서울 송파구 방이동 37-3"}
{"index":{"_index":"hotel", "_id":"469"}}
{"name":"잠실 쿠키","location": {"lon": 127.10883700000001, "lat": 37.51530186},"area":"서울시/서울특별시","type":"MOTEL","address":"서울 송파구 방이동 34-5"}
{"index":{"_index":"hotel", "_id":"470"}}
{"name":"잠실 산타페","location": {"lon": 127.109874, "lat": 37.51591719},"area":"서울시/서울특별시","type":"MOTEL","address":"서울 송파구 방이동 38-1"}
{"index":{"_index":"hotel", "_id":"471"}}
{"name":"영등포 나인-NINE","location": {"lon": 126.9083886, "lat": 37.51828258},"area":"서울시/서울특별시","type":"MOTEL","address":"서울 영등포구 영등포동3가 24-4"}
{"index":{"_index":"hotel", "_id":"472"}}
{"name":"영등포 샵","location": {"lon": 126.9062887, "lat": 37.51864854},"area":"서울시/서울특별시","type":"MOTEL","address":"서울 영등포구 영등포동3가 7-12"}
{"index":{"_index":"hotel", "_id":"473"}}
{"name":"영등포 달동네","location": {"lon": 126.90854669999999, "lat": 37.51852417},"area":"서울시/서울특별시","type":"MOTEL","address":"서울 영등포구 영등포동3가 15-5"}
{"index":{"_index":"hotel", "_id":"474"}}
{"name":"영등포 맥스","location": {"lon": 126.9071617, "lat": 37.51887268},"area":"서울시/서울특별시","type":"MOTEL","address":"서울 영등포구 영등포동3가 16-1"}
{"index":{"_index":"hotel", "_id":"475"}}
{"name":"영등포 라이프스타일 i","location": {"lon": 126.91145759999999, "lat": 37.51719291},"area":"서울시/서울특별시","type":"MOTEL","address":"서울 영등포구 영등포동1가 121-1"}
{"index":{"_index":"hotel", "_id":"476"}}
{"name":"영등포 샤모니","location": {"lon": 126.90393300000001, "lat": 37.52083789},"area":"서울시/서울특별시","type":"MOTEL","address":"서울 영등포구 영등포동6가 69-1"}
{"index":{"_index":"hotel", "_id":"477"}}
{"name":"영등포 도도","location": {"lon": 126.91216829999999, "lat": 37.52077222},"area":"서울시/서울특별시","type":"MOTEL","address":"서울 영등포구 영등포동2가 94-154"}
{"index":{"_index":"hotel", "_id":"478"}}
{"name":"영등포 R","location": {"lon": 126.9120051, "lat": 37.51721494},"area":"서울시/서울특별시","type":"MOTEL","address":"서울 영등포구 영등포동1가 121-6"}
{"index":{"_index":"hotel", "_id":"479"}}
{"name":"영등포 라이프스타일 F","location": {"lon": 126.9111997, "lat": 37.5171783},"area":"서울시/서울특별시","type":"MOTEL","address":"서울 영등포구 영등포동1가 121-4"}
{"index":{"_index":"hotel", "_id":"480"}}
{"name":"영등포 라이프스타일 L","location": {"lon": 126.91171100000001, "lat": 37.51720751},"area":"서울시/서울특별시","type":"MOTEL","address":"서울 영등포구 영등포동1가 121-5"}
{"index":{"_index":"hotel", "_id":"481"}}
{"name":"영등포 Q","location": {"lon": 126.90835320000001, "lat": 37.51765906},"area":"서울시/서울특별시","type":"MOTEL","address":"서울 영등포구 영등포동3가 22-4"}
{"index":{"_index":"hotel", "_id":"482"}}
{"name":"영등포 쟈스민","location": {"lon": 126.9088003, "lat": 37.51832615},"area":"서울시/서울특별시","type":"MOTEL","address":"서울 영등포구 영등포동3가 23"}
{"index":{"_index":"hotel", "_id":"483"}}
{"name":"영등포 올림피아","location": {"lon": 126.90986840000001, "lat": 37.51812154},"area":"서울시/서울특별시","type":"MOTEL","address":"서울 영등포구 영등포동3가 13-7"}
{"index":{"_index":"hotel", "_id":"484"}}
{"name":"용산 애플","location": {"lon": 126.9622611, "lat": 37.52411814},"area":"서울시/서울특별시","type":"MOTEL","address":"서울 용산구 한강로3가 40-325"}
{"index":{"_index":"hotel", "_id":"485"}}
{"name":"이태원 디오로","location": {"lon": 126.9958725, "lat": 37.53505505},"area":"서울시/서울특별시","type":"MOTEL","address":"서울 용산구 이태원동 124-3"}
{"index":{"_index":"hotel", "_id":"486"}}
{"name":"용산 뉴월드호텔","location": {"lon": 126.97351680000001, "lat": 37.54428921},"area":"서울시/서울특별시","type":"MOTEL","address":"서울 용산구 남영동 42"}
{"index":{"_index":"hotel", "_id":"487"}}
{"name":"연신내 쉴","location": {"lon": 126.92071429999999, "lat": 37.62041031},"area":"서울시/서울특별시","type":"MOTEL","address":"서울 은평구 불광동 484-64"}
{"index":{"_index":"hotel", "_id":"488"}}
{"name":"연신내 만토바","location": {"lon": 126.9214553, "lat": 37.61800336},"area":"서울시/서울특별시","type":"MOTEL","address":"서울 은평구 대조동 185-82"}
{"index":{"_index":"hotel", "_id":"489"}}
{"name":"종로 2heaven","location": {"lon": 126.9897034, "lat": 37.57225147},"area":"서울시/서울특별시","type":"MOTEL","address":"서울 종로구 낙원동 133"}
{"index":{"_index":"hotel", "_id":"490"}}
{"name":"종로 꾸띠","location": {"lon": 126.98957659999998, "lat": 37.57198477},"area":"서울시/서울특별시","type":"MOTEL","address":"서울 종로구 돈의동 76-2"}
{"index":{"_index":"hotel", "_id":"491"}}
{"name":"종로 스타","location": {"lon": 126.99007479999999, "lat": 37.57153792},"area":"서울시/서울특별시","type":"MOTEL","address":"서울 종로구 낙원동 153-2"}
{"index":{"_index":"hotel", "_id":"492"}}
{"name":"종로 POP","location": {"lon": 126.9902061, "lat": 37.5710586},"area":"서울시/서울특별시","type":"MOTEL","address":"서울 종로구 낙원동 186"}
{"index":{"_index":"hotel", "_id":"493"}}
{"name":"종로 카오산스토리","location": {"lon": 126.9913156, "lat": 37.56983694},"area":"서울시/서울특별시","type":"MOTEL","address":"서울 종로구 관수동 56"}
{"index":{"_index":"hotel", "_id":"494"}}
{"name":"종로 라포레-구 POP3","location": {"lon": 126.98989820000001, "lat": 37.5710838},"area":"서울시/서울특별시","type":"MOTEL","address":"서울 종로구 낙원동 184"}
{"index":{"_index":"hotel", "_id":"495"}}
{"name":"종로 POP2","location": {"lon": 126.9900884, "lat": 37.57109463},"area":"서울시/서울특별시","type":"MOTEL","address":"서울 종로구 낙원동 185-1"}
{"index":{"_index":"hotel", "_id":"496"}}
{"name":"주안 주얼리","location": {"lon": 126.6864814, "lat": 37.45956018},"area":"인천시/인천광역시","type":"MOTEL","address":"인천 남구 주안동 68-2"}
{"index":{"_index":"hotel", "_id":"497"}}
{"name":"종로 쉴","location": {"lon": 126.9901747, "lat": 37.56923138},"area":"서울시/서울특별시","type":"MOTEL","address":"서울 종로구 관수동 137"}
{"index":{"_index":"hotel", "_id":"498"}}
{"name":"종로 HOTEL YOU","location": {"lon": 126.9896039, "lat": 37.57156671},"area":"서울시/서울특별시","type":"MOTEL","address":"서울 종로구 낙원동 166"}
{"index":{"_index":"hotel", "_id":"499"}}
{"name":"종로 에비뉴 162","location": {"lon": 126.98983940000001, "lat": 37.57122435},"area":"서울시/서울특별시","type":"MOTEL","address":"서울 종로구 낙원동 162"}
{"index":{"_index":"hotel", "_id":"500"}}
{"name":"노원 이프-IF","location": {"lon": 127.0584027, "lat": 37.65499148},"area":"서울시/서울특별시","type":"MOTEL","address":"서울 노원구 상계동 706-1"}
{"index":{"_index":"hotel", "_id":"501"}}
{"name":"종로 JR","location": {"lon": 126.98631680000001, "lat": 37.57061132},"area":"서울시/서울특별시","type":"MOTEL","address":"서울 종로구 인사동 87"}
{"index":{"_index":"hotel", "_id":"502"}}
{"name":"종로 AMARE 아마레","location": {"lon": 126.9897895, "lat": 37.57133967},"area":"서울시/서울특별시","type":"MOTEL","address":"서울 종로구 낙원동 163"}
{"index":{"_index":"hotel", "_id":"503"}}
{"name":"종로 더 디자이너스","location": {"lon": 126.98902460000001, "lat": 37.56936102},"area":"서울시/서울특별시","type":"MOTEL","address":"서울 종로구 관수동 14-1"}
{"index":{"_index":"hotel", "_id":"504"}}
{"name":"종로 자바","location": {"lon": 127.020109, "lat": 37.57381073},"area":"서울시/서울특별시","type":"MOTEL","address":"서울 종로구 숭인동 200-32"}
{"index":{"_index":"hotel", "_id":"505"}}
{"name":"종로 컬리넌","location": {"lon": 126.989391, "lat": 37.57199917},"area":"서울시/서울특별시","type":"MOTEL","address":"서울 종로구 낙원동 142"}
{"index":{"_index":"hotel", "_id":"506"}}
{"name":"종로 누누","location": {"lon": 126.9896673, "lat": 37.57098287},"area":"서울시/서울특별시","type":"MOTEL","address":"서울 종로구 낙원동 180"}
{"index":{"_index":"hotel", "_id":"507"}}
{"name":"종로 IMT","location": {"lon": 126.99026070000001, "lat": 37.56907641},"area":"서울시/서울특별시","type":"MOTEL","address":"서울 종로구 관수동 140"}
{"index":{"_index":"hotel", "_id":"508"}}
{"name":"방배 쉴","location": {"lon": 126.98590549999999, "lat": 37.49427485},"area":"서울시/서울특별시","type":"MOTEL","address":"서울 서초구 방배동 768-17"}
{"index":{"_index":"hotel", "_id":"509"}}
{"name":"방배 S","location": {"lon": 126.9877243, "lat": 37.49161888},"area":"서울시/서울특별시","type":"MOTEL","address":"서울 서초구 방배동 818-22"}
{"index":{"_index":"hotel", "_id":"510"}}
{"name":"천호 호텔 6월","location": {"lon": 127.125202, "lat": 37.53959827},"area":"서울시/서울특별시","type":"MOTEL","address":"서울 강동구 천호동 427-39"}
{"index":{"_index":"hotel", "_id":"511"}}
{"name":"길동 R호텔","location": {"lon": 127.13840159999998, "lat": 37.53815996},"area":"서울시/서울특별시","type":"MOTEL","address":"서울 강동구 길동 387-4"}
{"index":{"_index":"hotel", "_id":"512"}}
{"name":"길동 IMT","location": {"lon": 127.1381424, "lat": 37.5374755},"area":"서울시/서울특별시","type":"MOTEL","address":"서울 강동구 길동 387-7"}
{"index":{"_index":"hotel", "_id":"513"}}
{"name":"화곡 미사","location": {"lon": 126.8412503, "lat": 37.52944151},"area":"서울시/서울특별시","type":"MOTEL","address":"서울 강서구 화곡동 922-4"}
{"index":{"_index":"hotel", "_id":"514"}}
{"name":"수원 타소스호텔","location": {"lon": 127.0252247, "lat": 37.26097245},"area":"경기도","type":"MOTEL","address":"경기 수원시 권선구 권선동 1011-17"}
{"index":{"_index":"hotel", "_id":"515"}}
{"name":"영등포 페트라","location": {"lon": 126.91012649999999, "lat": 37.51794154},"area":"서울시/서울특별시","type":"MOTEL","address":"서울 영등포구 영등포동3가 12-2"}
{"index":{"_index":"hotel", "_id":"516"}}
{"name":"상봉 메이","location": {"lon": 127.0899674, "lat": 37.59614441},"area":"서울시/서울특별시","type":"MOTEL","address":"서울 중랑구 상봉동 89-3"}
{"index":{"_index":"hotel", "_id":"517"}}
{"name":"삼산 FAN","location": {"lon": 129.33857690000002, "lat": 35.54033307},"area":"울산시/울산광역시","type":"MOTEL","address":"울산 남구 삼산동 1524-3"}
{"index":{"_index":"hotel", "_id":"518"}}
{"name":"삼산 반지","location": {"lon": 129.3467402, "lat": 35.54036543},"area":"울산시/울산광역시","type":"MOTEL","address":"울산 남구 삼산동 224-7"}
{"index":{"_index":"hotel", "_id":"519"}}
{"name":"삼산 MS","location": {"lon": 129.34130090000002, "lat": 35.54044598},"area":"울산시/울산광역시","type":"MOTEL","address":"울산 남구 삼산동 1564-10"}
{"index":{"_index":"hotel", "_id":"520"}}
{"name":"주안 파티오","location": {"lon": 126.68295060000001, "lat": 37.46165551},"area":"인천시/인천광역시","type":"MOTEL","address":"인천 남구 주안동 93-3"}
{"index":{"_index":"hotel", "_id":"521"}}
{"name":"주안 Cloud9","location": {"lon": 126.68230520000002, "lat": 37.46245748},"area":"인천시/인천광역시","type":"MOTEL","address":"인천 남구 주안동 147-23"}
{"index":{"_index":"hotel", "_id":"522"}}
{"name":"종로 시네마","location": {"lon": 126.98918710000001, "lat": 37.57318846},"area":"서울시/서울특별시","type":"MOTEL","address":"서울 종로구 낙원동 84"}
{"index":{"_index":"hotel", "_id":"523"}}
{"name":"주안 별이빛나는밤에","location": {"lon": 126.6820693, "lat": 37.46157025},"area":"인천시/인천광역시","type":"MOTEL","address":"인천 남구 주안동 157-4"}
{"index":{"_index":"hotel", "_id":"524"}}
{"name":"주안 루나호텔","location": {"lon": 126.67425290000001, "lat": 37.46450067},"area":"인천시/인천광역시","type":"MOTEL","address":"인천 남구 주안동 478-59"}
{"index":{"_index":"hotel", "_id":"525"}}
{"name":"주안 THE STAY HOTEL","location": {"lon": 126.68211740000001, "lat": 37.46196322},"area":"인천시/인천광역시","type":"MOTEL","address":"인천 남구 주안동 149-8"}
{"index":{"_index":"hotel", "_id":"526"}}
{"name":"용현 CF","location": {"lon": 126.63586979999998, "lat": 37.45626154},"area":"인천시/인천광역시","type":"MOTEL","address":"인천 남구 용현동 624-53"}
{"index":{"_index":"hotel", "_id":"527"}}
{"name":"주안 리베라","location": {"lon": 126.6878779, "lat": 37.45859078},"area":"인천시/인천광역시","type":"MOTEL","address":"인천 남구 주안동 1004-16"}
{"index":{"_index":"hotel", "_id":"528"}}
{"name":"주안 베듀-허브","location": {"lon": 126.6788369, "lat": 37.46044066},"area":"인천시/인천광역시","type":"MOTEL","address":"인천 남구 주안동 203-5"}
{"index":{"_index":"hotel", "_id":"529"}}
{"name":"주안 호텔위드","location": {"lon": 126.681105, "lat": 37.45974401},"area":"인천시/인천광역시","type":"MOTEL","address":"인천 남구 주안동 177-1"}
{"index":{"_index":"hotel", "_id":"530"}}
{"name":"주안 피아노","location": {"lon": 126.6869646, "lat": 37.4596876},"area":"인천시/인천광역시","type":"MOTEL","address":"인천 남구 주안동 66-14"}
{"index":{"_index":"hotel", "_id":"531"}}
{"name":"주안 피닉스","location": {"lon": 126.6789155, "lat": 37.46319796},"area":"인천시/인천광역시","type":"MOTEL","address":"인천 남구 주안동 229-5"}
{"index":{"_index":"hotel", "_id":"532"}}
{"name":"주안 느낌표","location": {"lon": 126.68762659999999, "lat": 37.45923885},"area":"인천시/인천광역시","type":"MOTEL","address":"인천 남구 주안동 1002-3"}
{"index":{"_index":"hotel", "_id":"533"}}
{"name":"용현 에이스","location": {"lon": 126.63630800000001, "lat": 37.45632776},"area":"인천시/인천광역시","type":"MOTEL","address":"인천 남구 용현동 624-9"}
{"index":{"_index":"hotel", "_id":"534"}}
{"name":"소래포구 호텔 월","location": {"lon": 126.73551429999999, "lat": 37.40139528},"area":"인천시/인천광역시","type":"MOTEL","address":"인천 남동구 논현동 676-1"}
{"index":{"_index":"hotel", "_id":"535"}}
{"name":"간석 파이호텔","location": {"lon": 126.7114878, "lat": 37.46425145},"area":"인천시/인천광역시","type":"MOTEL","address":"인천 남동구 간석동 169-3"}
{"index":{"_index":"hotel", "_id":"536"}}
{"name":"인천 호텔아이","location": {"lon": 126.6442804, "lat": 37.47498485},"area":"인천시/인천광역시","type":"MOTEL","address":"인천 동구 송림동 58-76"}
{"index":{"_index":"hotel", "_id":"537"}}
{"name":"평택 갤러리 호텔","location": {"lon": 127.08779720000001, "lat": 36.99397573},"area":"경기도","type":"MOTEL","address":"경기 평택시 평택동 35-27"}
{"index":{"_index":"hotel", "_id":"538"}}
{"name":"부평 POP","location": {"lon": 126.72672050000001, "lat": 37.49155213},"area":"인천시/인천광역시","type":"MOTEL","address":"인천 부평구 부평동 160-25"}
{"index":{"_index":"hotel", "_id":"539"}}
{"name":"부평 IMT","location": {"lon": 126.7270165, "lat": 37.49226641},"area":"인천시/인천광역시","type":"MOTEL","address":"인천 부평구 부평동 584-4"}
{"index":{"_index":"hotel", "_id":"540"}}
{"name":"속초 피카소","location": {"lon": 128.59970790000003, "lat": 38.21218277},"area":"강원도","type":"MOTEL","address":"강원 속초시 동명동 1-15"}
{"index":{"_index":"hotel", "_id":"541"}}
{"name":"부평 굿타임","location": {"lon": 126.7271929, "lat": 37.4922524},"area":"인천시/인천광역시","type":"MOTEL","address":"인천 부평구 부평동 583-6"}
{"index":{"_index":"hotel", "_id":"542"}}
{"name":"동암 홈","location": {"lon": 126.7024366, "lat": 37.46979003},"area":"인천시/인천광역시","type":"MOTEL","address":"인천 부평구 십정동 409-15"}
{"index":{"_index":"hotel", "_id":"543"}}
{"name":"부평 XYM","location": {"lon": 126.7241622, "lat": 37.49354281},"area":"인천시/인천광역시","type":"MOTEL","address":"인천 부평구 부평동 201-94"}
{"index":{"_index":"hotel", "_id":"544"}}
{"name":"동암 몽","location": {"lon": 126.70229199999999, "lat": 37.4720566},"area":"인천시/인천광역시","type":"MOTEL","address":"인천 부평구 십정동 402-25"}
{"index":{"_index":"hotel", "_id":"545"}}
{"name":"부평 XYM2","location": {"lon": 126.7265813, "lat": 37.4925357},"area":"인천시/인천광역시","type":"MOTEL","address":"인천 부평구 부평동 154-22"}
{"index":{"_index":"hotel", "_id":"546"}}
{"name":"부평 느낌표","location": {"lon": 126.72585500000001, "lat": 37.49198981},"area":"인천시/인천광역시","type":"MOTEL","address":"인천 부평구 부평동 155-29"}
{"index":{"_index":"hotel", "_id":"547"}}
{"name":"부평 버니1","location": {"lon": 126.72633799999998, "lat": 37.49226484},"area":"인천시/인천광역시","type":"MOTEL","address":"인천 부평구 부평동 155-26"}
{"index":{"_index":"hotel", "_id":"548"}}
{"name":"부평 애플그린","location": {"lon": 126.7209729, "lat": 37.49244691},"area":"인천시/인천광역시","type":"MOTEL","address":"인천 부평구 부평동 546-42"}
{"index":{"_index":"hotel", "_id":"549"}}
{"name":"부평 boutique 노리터 호텔","location": {"lon": 126.7259826, "lat": 37.49173422},"area":"인천시/인천광역시","type":"MOTEL","address":"인천 부평구 부평동 159-13"}
{"index":{"_index":"hotel", "_id":"550"}}
{"name":"부평 닉스","location": {"lon": 126.72045870000001, "lat": 37.4908419},"area":"인천시/인천광역시","type":"MOTEL","address":"인천 부평구 부평동 534-53"}
{"index":{"_index":"hotel", "_id":"551"}}
{"name":"부평 화이트캐슬","location": {"lon": 126.72897830000001, "lat": 37.49383507},"area":"인천시/인천광역시","type":"MOTEL","address":"인천 부평구 부평동 526-3"}
{"index":{"_index":"hotel", "_id":"552"}}
{"name":"주안 피코크","location": {"lon": 126.68441029999998, "lat": 37.46073679},"area":"인천시/인천광역시","type":"MOTEL","address":"인천 남구 주안동 90-5"}
{"index":{"_index":"hotel", "_id":"553"}}
{"name":"잠실 체리","location": {"lon": 127.1083166, "lat": 37.51524468},"area":"서울시/서울특별시","type":"MOTEL","address":"서울 송파구 방이동 28-8"}
{"index":{"_index":"hotel", "_id":"554"}}
{"name":"석남 칼튼","location": {"lon": 126.6688116, "lat": 37.5069733},"area":"인천시/인천광역시","type":"MOTEL","address":"인천 서구 석남동 526-12"}
{"index":{"_index":"hotel", "_id":"555"}}
{"name":"송도 놀러와","location": {"lon": 126.65020390000001, "lat": 37.4187651},"area":"인천시/인천광역시","type":"MOTEL","address":"인천 연수구 옥련동 547-9"}
{"index":{"_index":"hotel", "_id":"556"}}
{"name":"송도 J","location": {"lon": 126.65176029999999, "lat": 37.41931031},"area":"인천시/인천광역시","type":"MOTEL","address":"인천 연수구 옥련동 539"}
{"index":{"_index":"hotel", "_id":"557"}}
{"name":"송도 바이칼","location": {"lon": 126.6512037, "lat": 37.41850857},"area":"인천시/인천광역시","type":"MOTEL","address":"인천 연수구 옥련동 548-8"}
{"index":{"_index":"hotel", "_id":"558"}}
{"name":"송도 H","location": {"lon": 126.6501821, "lat": 37.41957235},"area":"인천시/인천광역시","type":"MOTEL","address":"인천 연수구 옥련동 545"}
{"index":{"_index":"hotel", "_id":"559"}}
{"name":"송도 1박2일","location": {"lon": 126.65269850000001, "lat": 37.41966987},"area":"인천시/인천광역시","type":"MOTEL","address":"인천 연수구 옥련동 531-2"}
{"index":{"_index":"hotel", "_id":"560"}}
{"name":"송도 Echae","location": {"lon": 126.65339850000001, "lat": 37.41878172},"area":"인천시/인천광역시","type":"MOTEL","address":"인천 연수구 옥련동 526-14"}
{"index":{"_index":"hotel", "_id":"561"}}
{"name":"송도 아이유","location": {"lon": 126.6499854, "lat": 37.41911405},"area":"인천시/인천광역시","type":"MOTEL","address":"인천 연수구 옥련동 547-4"}
{"index":{"_index":"hotel", "_id":"562"}}
{"name":"송도 올인","location": {"lon": 126.65180649999999, "lat": 37.41910141},"area":"인천시/인천광역시","type":"MOTEL","address":"인천 연수구 옥련동 539-2"}
{"index":{"_index":"hotel", "_id":"563"}}
{"name":"영흥도 짝-선재도","location": {"lon": 126.5262246, "lat": 37.24783801},"area":"인천시/인천광역시","type":"MOTEL","address":"인천 옹진군 영흥면 선재리 487-10"}
{"index":{"_index":"hotel", "_id":"564"}}
{"name":"영흥도 반디-선재도","location": {"lon": 126.5267988, "lat": 37.24613554},"area":"인천시/인천광역시","type":"MOTEL","address":"인천 옹진군 영흥면 선재리 472-45"}
{"index":{"_index":"hotel", "_id":"565"}}
{"name":"차이나타운 위드","location": {"lon": 126.62583909999998, "lat": 37.46961917},"area":"인천시/인천광역시","type":"MOTEL","address":"인천 중구 사동 18-44"}
{"index":{"_index":"hotel", "_id":"566"}}
{"name":"나주 모텔스퀘어","location": {"lon": 126.711177, "lat": 35.00049215},"area":"전남/전라남도/전라도","type":"MOTEL","address":"전남 나주시 영산동 248-2"}
{"index":{"_index":"hotel", "_id":"567"}}
{"name":"목포 뉴에버그린호텔","location": {"lon": 126.4304175, "lat": 34.80038763},"area":"전남/전라남도/전라도","type":"MOTEL","address":"전남 목포시 상동 1032-2"}
{"index":{"_index":"hotel", "_id":"568"}}
{"name":"순천 발리","location": {"lon": 127.49987820000001, "lat": 34.94658932},"area":"전남/전라남도/전라도","type":"MOTEL","address":"전남 순천시 조곡동 154-7"}
{"index":{"_index":"hotel", "_id":"569"}}
{"name":"순천 필","location": {"lon": 127.5234131, "lat": 34.95327577},"area":"전남/전라남도/전라도","type":"MOTEL","address":"전남 순천시 조례동 1597-6"}
{"index":{"_index":"hotel", "_id":"570"}}
{"name":"여수 블랙앤화이트 무인텔","location": {"lon": 127.7523527, "lat": 34.72041505},"area":"전남/전라남도/전라도","type":"MOTEL","address":"전남 여수시 돌산읍 우두리 1068-3"}
{"index":{"_index":"hotel", "_id":"571"}}
{"name":"여수 벤허","location": {"lon": 127.66341100000001, "lat": 34.75830033},"area":"전남/전라남도/전라도","type":"MOTEL","address":"전남 여수시 학동 175-1"}
{"index":{"_index":"hotel", "_id":"572"}}
{"name":"당진 행담도","location": {"lon": 126.7933037, "lat": 36.94180316},"area":"충남/충청남도/충청도","type":"MOTEL","address":"충남 당진시 송악읍 복운리 1-108"}
{"index":{"_index":"hotel", "_id":"573"}}
{"name":"대전 다모아","location": {"lon": 127.4193873, "lat": 36.33548835},"area":"대전시/대전광역시","type":"MOTEL","address":"대전 중구 선화동 88-17"}
{"index":{"_index":"hotel", "_id":"574"}}
{"name":"보령 올레","location": {"lon": 126.5191533, "lat": 36.30555773},"area":"충남/충청남도/충청도","type":"MOTEL","address":"충남 보령시 신흑동 2013"}
{"index":{"_index":"hotel", "_id":"575"}}
{"name":"보령 JI호텔 (본관)","location": {"lon": 126.5097111, "lat": 36.3163263},"area":"충남/충청남도/충청도","type":"MOTEL","address":"충남 보령시 신흑동 2264-1"}
{"index":{"_index":"hotel", "_id":"576"}}
{"name":"보령 래미안","location": {"lon": 126.50897450000001, "lat": 36.31801028},"area":"충남/충청남도/충청도","type":"MOTEL","address":"충남 보령시 신흑동 2226-9"}
{"index":{"_index":"hotel", "_id":"577"}}
{"name":"보령 산타나","location": {"lon": 126.5084325, "lat": 36.31990052},"area":"충남/충청남도/충청도","type":"MOTEL","address":"충남 보령시 신흑동 2216-2"}
{"index":{"_index":"hotel", "_id":"578"}}
{"name":"보령 본가야호텔","location": {"lon": 126.50848390000002, "lat": 36.32023236},"area":"충남/충청남도/충청도","type":"MOTEL","address":"충남 보령시 신흑동  2214-5"}
{"index":{"_index":"hotel", "_id":"579"}}
{"name":"보령 뉴보령","location": {"lon": 126.609788, "lat": 36.35471011},"area":"충남/충청남도/충청도","type":"MOTEL","address":"충남 보령시 동대동 680-1"}
{"index":{"_index":"hotel", "_id":"580"}}
{"name":"보령 JI호텔 (신관)","location": {"lon": 126.50998190000001, "lat": 36.31646078},"area":"충남/충청남도/충청도","type":"MOTEL","address":"충남 보령시 신흑동 2263-1"}
{"index":{"_index":"hotel", "_id":"581"}}
{"name":"서천 K","location": {"lon": 126.7537463, "lat": 36.02981718},"area":"충남/충청남도/충청도","type":"MOTEL","address":"충남 서천군 화양면 망월리 185-4"}
{"index":{"_index":"hotel", "_id":"582"}}
{"name":"서천 파라다이스","location": {"lon": 126.754283, "lat": 36.02989759},"area":"충남/충청남도/충청도","type":"MOTEL","address":"충남 서천군 화양면 망월리 185-6"}
{"index":{"_index":"hotel", "_id":"583"}}
{"name":"아산 하얏트","location": {"lon": 126.9994712, "lat": 36.78634089},"area":"충남/충청남도/충청도","type":"MOTEL","address":"충남 아산시 온천동 1349"}
{"index":{"_index":"hotel", "_id":"584"}}
{"name":"아산 나이스","location": {"lon": 126.99773689999999, "lat": 36.78786556},"area":"충남/충청남도/충청도","type":"MOTEL","address":"충남 아산시 온천동 1318"}
{"index":{"_index":"hotel", "_id":"585"}}
{"name":"아산 베르사체","location": {"lon": 126.9973604, "lat": 36.78835215},"area":"충남/충청남도/충청도","type":"MOTEL","address":"충남 아산시 온천동 1312"}
{"index":{"_index":"hotel", "_id":"586"}}
{"name":"온양 ING","location": {"lon": 127.0062375, "lat": 36.78175586},"area":"충남/충청남도/충청도","type":"MOTEL","address":"충남 아산시 온천동 82-8"}
{"index":{"_index":"hotel", "_id":"587"}}
{"name":"대전 패리스","location": {"lon": 127.41954380000001, "lat": 36.33725771},"area":"대전시/대전광역시","type":"MOTEL","address":"대전 중구 선화동  117-6"}
{"index":{"_index":"hotel", "_id":"588"}}
{"name":"천안 스위트","location": {"lon": 127.1404034, "lat": 36.81106746},"area":"충남/충청남도/충청도","type":"MOTEL","address":"충남 천안시 서북구 성정동 744-1"}
{"index":{"_index":"hotel", "_id":"589"}}
{"name":"미아 썸","location": {"lon": 127.03186640000001, "lat": 37.61183},"area":"서울시/서울특별시","type":"MOTEL","address":"서울 강북구 미아동 44-30"}
{"index":{"_index":"hotel", "_id":"590"}}
{"name":"천안 비즈니스호텔","location": {"lon": 127.13988459999999, "lat": 36.81172408},"area":"충남/충청남도/충청도","type":"MOTEL","address":"충남 천안시 서북구 성정동 742-10"}
{"index":{"_index":"hotel", "_id":"591"}}
{"name":"천안 테마호텔","location": {"lon": 127.1403848, "lat": 36.81071064},"area":"충남/충청남도/충청도","type":"MOTEL","address":"충남 천안시 서북구 성정동 744-7"}
{"index":{"_index":"hotel", "_id":"592"}}
{"name":"천안 체리","location": {"lon": 127.13949469999999, "lat": 36.81181465},"area":"충남/충청남도/충청도","type":"MOTEL","address":"충남 천안시 서북구 성정동 742-9"}
{"index":{"_index":"hotel", "_id":"593"}}
{"name":"천안 자자 호텔","location": {"lon": 127.1441097, "lat": 36.82735868},"area":"충남/충청남도/충청도","type":"MOTEL","address":"충남 천안시 서북구 성정동 1399"}
{"index":{"_index":"hotel", "_id":"594"}}
{"name":"천안 쇼호텔","location": {"lon": 127.1427692, "lat": 36.82739274},"area":"충남/충청남도/충청도","type":"MOTEL","address":"충남 천안시 서북구 성정동  1471"}
{"index":{"_index":"hotel", "_id":"595"}}
{"name":"천안 팰리스호텔","location": {"lon": 127.1445212, "lat": 36.82920725},"area":"충남/충청남도/충청도","type":"MOTEL","address":"충남 천안시 서북구 성정동  1365"}
{"index":{"_index":"hotel", "_id":"596"}}
{"name":"천안 제우스","location": {"lon": 127.1433682, "lat": 36.82642603},"area":"충남/충청남도/충청도","type":"MOTEL","address":"충남 천안시 서북구 성정동 1418"}
{"index":{"_index":"hotel", "_id":"597"}}
{"name":"천안 K","location": {"lon": 127.14243629999999, "lat": 36.82680201},"area":"충남/충청남도/충청도","type":"MOTEL","address":"충남 천안시 서북구 성정동 1456"}
{"index":{"_index":"hotel", "_id":"598"}}
{"name":"천안 메리어트","location": {"lon": 127.14439890000001, "lat": 36.82852256},"area":"충남/충청남도/충청도","type":"MOTEL","address":"충남 천안시 서북구 성정동 1378"}
{"index":{"_index":"hotel", "_id":"599"}}
{"name":"천안 도쿄호텔","location": {"lon": 127.12815559999999, "lat": 36.79703476},"area":"충남/충청남도/충청도","type":"MOTEL","address":"충남 천안시 서북구 쌍용동 210-47"}
{"index":{"_index":"hotel", "_id":"600"}}
{"name":"천안 썬","location": {"lon": 127.1910477, "lat": 36.83393549},"area":"충남/충청남도/충청도","type":"MOTEL","address":"충남 천안시 동남구 안서동 159-1"}
{"index":{"_index":"hotel", "_id":"601"}}
{"name":"천안 소풍","location": {"lon": 127.13990279999999, "lat": 36.81191149},"area":"충남/충청남도/충청도","type":"MOTEL","address":"충남 천안시 서북구 성정동 742-2"}
{"index":{"_index":"hotel", "_id":"602"}}
{"name":"천안 VOLE","location": {"lon": 127.14378570000001, "lat": 36.82669946},"area":"충남/충청남도/충청도","type":"MOTEL","address":"충남 천안시 서북구 성정동 1409"}
{"index":{"_index":"hotel", "_id":"603"}}
{"name":"태안 수룡","location": {"lon": 126.2373439, "lat": 36.74803965},"area":"충남/충청남도/충청도","type":"MOTEL","address":"충남 태안군 근흥면 마금리 35-11"}
{"index":{"_index":"hotel", "_id":"604"}}
{"name":"청주 킹","location": {"lon": 127.483926, "lat": 36.65758918},"area":"충북/충청북도/충청도","type":"MOTEL","address":"충북 청주시 청원구 내덕동  642-8"}
{"index":{"_index":"hotel", "_id":"605"}}
{"name":"청주 메이저호텔","location": {"lon": 127.42602099999999, "lat": 36.63059266},"area":"충북/충청북도/충청도","type":"MOTEL","address":"충북 청주시 흥덕구 비하동 788"}
{"index":{"_index":"hotel", "_id":"606"}}
{"name":"청주 모원","location": {"lon": 127.42831729999999, "lat": 36.63016991},"area":"충북/충청북도/충청도","type":"MOTEL","address":"충북 청주시 흥덕구 복대동 2841"}
{"index":{"_index":"hotel", "_id":"607"}}
{"name":"충주 오라","location": {"lon": 127.90989309999999, "lat": 36.97440286},"area":"충북/충청북도/충청도","type":"MOTEL","address":"충북 충주시 봉방동 407-9"}
{"index":{"_index":"hotel", "_id":"608"}}
{"name":"청주 아모르","location": {"lon": 127.48944159999999, "lat": 36.6384123},"area":"충북/충청북도/충청도","type":"MOTEL","address":"충북 청주시 상당구 북문로2가  73"}
{"index":{"_index":"hotel", "_id":"609"}}
{"name":"청주 린","location": {"lon": 127.4343783, "lat": 36.62559545},"area":"충북/충청북도/충청도","type":"MOTEL","address":"충북 청주시 흥덕구 가경동 1452-7"}
{"index":{"_index":"hotel", "_id":"610"}}
{"name":"청주 G7","location": {"lon": 127.4333501, "lat": 36.62404924},"area":"충북/충청북도/충청도","type":"MOTEL","address":"충북 청주시 흥덕구 가경동 1457-3"}
{"index":{"_index":"hotel", "_id":"611"}}
{"name":"청주 Story호텔","location": {"lon": 127.4288452, "lat": 36.63099705},"area":"충북/충청북도/충청도","type":"MOTEL","address":"충북 청주시 흥덕구 복대동 2856"}
{"index":{"_index":"hotel", "_id":"612"}}
{"name":"청주 에버그린","location": {"lon": 127.44896809999999, "lat": 36.63525195},"area":"충북/충청북도/충청도","type":"MOTEL","address":"충북 청주시 흥덕구 복대동 633-5"}
{"index":{"_index":"hotel", "_id":"613"}}
{"name":"청주 짝호텔","location": {"lon": 127.42602959999999, "lat": 36.62972033},"area":"충북/충청북도/충청도","type":"MOTEL","address":"충북 청주시 흥덕구 비하동 781"}
{"index":{"_index":"hotel", "_id":"614"}}
{"name":"충주 렉시","location": {"lon": 127.9112824, "lat": 36.97601771},"area":"충북/충청북도/충청도","type":"MOTEL","address":"충북 충주시 봉방동 167-2"}
{"index":{"_index":"hotel", "_id":"615"}}
{"name":"충주 A","location": {"lon": 127.93279229999999, "lat": 36.96984963},"area":"충북/충청북도/충청도","type":"MOTEL","address":"충북 충주시 성서동 519"}
{"index":{"_index":"hotel", "_id":"616"}}
{"name":"잠실 IMT","location": {"lon": 127.1107747, "lat": 37.51615061},"area":"서울시/서울특별시","type":"MOTEL","address":"서울 송파구 방이동 41-5"}
{"index":{"_index":"hotel", "_id":"617"}}
{"name":"주안 Luxury짝","location": {"lon": 126.686217, "lat": 37.45900085},"area":"인천시/인천광역시","type":"MOTEL","address":"인천 남구 주안동 69-18"}
{"index":{"_index":"hotel", "_id":"618"}}
{"name":"산본 ZZAM","location": {"lon": 126.93203290000001, "lat": 37.3602785},"area":"경기도","type":"MOTEL","address":"경기 군포시 산본동 1131-3"}
{"index":{"_index":"hotel", "_id":"619"}}
{"name":"용인 M","location": {"lon": 127.1085787, "lat": 37.27388592},"area":"경기도","type":"MOTEL","address":"경기 용인시 기흥구 신갈동 52-8"}
{"index":{"_index":"hotel", "_id":"620"}}
{"name":"신림 K2","location": {"lon": 126.9313635, "lat": 37.48523847},"area":"서울시/서울특별시","type":"MOTEL","address":"서울 관악구 신림동 1421-22"}
{"index":{"_index":"hotel", "_id":"621"}}
{"name":"논현 모투","location": {"lon": 127.03512690000001, "lat": 37.51251763},"area":"서울시/서울특별시","type":"MOTEL","address":"서울 강남구 논현동 218-25"}
{"index":{"_index":"hotel", "_id":"622"}}
{"name":"구리 홍콩","location": {"lon": 127.1367438, "lat": 37.59933224},"area":"경기도","type":"MOTEL","address":"경기 구리시 수택동  373-9"}
{"index":{"_index":"hotel", "_id":"623"}}
{"name":"부평 아트1","location": {"lon": 126.72813909999998, "lat": 37.49202032},"area":"인천시/인천광역시","type":"MOTEL","address":"인천 부평구 부평동 565-2"}
{"index":{"_index":"hotel", "_id":"624"}}
{"name":"신사 모리","location": {"lon": 127.0196233, "lat": 37.51730015},"area":"서울시/서울특별시","type":"MOTEL","address":"서울 강남구 신사동 502-7"}
{"index":{"_index":"hotel", "_id":"625"}}
{"name":"신촌 슈미에르","location": {"lon": 126.9382202, "lat": 37.55624127},"area":"서울시/서울특별시","type":"MOTEL","address":"서울 서대문구 창천동 29-25"}
{"index":{"_index":"hotel", "_id":"626"}}
{"name":"건대 컬리넌","location": {"lon": 127.06905379999999, "lat": 37.55055735},"area":"서울시/서울특별시","type":"MOTEL","address":"서울 광진구 군자동  350-6"}
{"index":{"_index":"hotel", "_id":"627"}}
{"name":"둔촌 S","location": {"lon": 127.1434566, "lat": 37.52846637},"area":"서울시/서울특별시","type":"MOTEL","address":"서울 강동구 둔촌동 144-4"}
{"index":{"_index":"hotel", "_id":"628"}}
{"name":"영등포 테마","location": {"lon": 126.90834369999999, "lat": 37.51798702},"area":"서울시/서울특별시","type":"MOTEL","address":"서울 영등포구 영등포동3가 27-3"}
{"index":{"_index":"hotel", "_id":"629"}}
{"name":"화곡 오슬로","location": {"lon": 126.8387788, "lat": 37.5297445},"area":"서울시/서울특별시","type":"MOTEL","address":"서울 강서구 화곡동  938-16"}
{"index":{"_index":"hotel", "_id":"630"}}
{"name":"청주 두바이 무인텔","location": {"lon": 127.48584740000001, "lat": 36.63228132},"area":"충북/충청북도/충청도","type":"MOTEL","address":"충북 청주시 상당구 서문동  126"}
{"index":{"_index":"hotel", "_id":"631"}}
{"name":"부평 버스","location": {"lon": 126.7214673, "lat": 37.49208046},"area":"인천시/인천광역시","type":"MOTEL","address":"인천 부평구 부평동 546-149"}
{"index":{"_index":"hotel", "_id":"632"}}
{"name":"부평 럭셔리짝","location": {"lon": 126.7261264, "lat": 37.49200486},"area":"인천시/인천광역시","type":"MOTEL","address":"인천 부평구 부평동 155-39"}
{"index":{"_index":"hotel", "_id":"633"}}
{"name":"부평 박스도로시2","location": {"lon": 126.7293201, "lat": 37.49312226},"area":"인천시/인천광역시","type":"MOTEL","address":"인천 부평구 부평동 532-4"}
{"index":{"_index":"hotel", "_id":"634"}}
{"name":"보령 W","location": {"lon": 126.61042069999999, "lat": 36.34310144},"area":"충남/충청남도/충청도","type":"MOTEL","address":"충남 보령시 명천동 373-2"}
{"index":{"_index":"hotel", "_id":"635"}}
{"name":"동성로 연예인","location": {"lon": 128.59250559999998, "lat": 35.87582221},"area":"대구시/대구광역시","type":"MOTEL","address":"대구 중구 태평로2가 1-50"}
{"index":{"_index":"hotel", "_id":"636"}}
{"name":"광안리 세븐","location": {"lon": 129.1267738, "lat": 35.15786151},"area":"부산시/부산광역시","type":"MOTEL","address":"부산 수영구 민락동 23-8"}
{"index":{"_index":"hotel", "_id":"637"}}
{"name":"해운대 달맞이","location": {"lon": 129.1711677, "lat": 35.16009435},"area":"부산시/부산광역시","type":"MOTEL","address":"부산 해운대구 중동 947-1"}
{"index":{"_index":"hotel", "_id":"638"}}
{"name":"유성 소풍","location": {"lon": 127.340511, "lat": 36.35703211},"area":"대전시/대전광역시","type":"MOTEL","address":"대전 유성구 봉명동 440-34"}
{"index":{"_index":"hotel", "_id":"639"}}
{"name":"수유 조이","location": {"lon": 127.0225358, "lat": 37.6332252},"area":"서울시/서울특별시","type":"MOTEL","address":"서울 강북구 수유동 90-13"}
{"index":{"_index":"hotel", "_id":"640"}}
{"name":"수유 캔디","location": {"lon": 127.02311110000001, "lat": 37.63228446},"area":"서울시/서울특별시","type":"MOTEL","address":"서울 강북구 수유동 87-5"}
{"index":{"_index":"hotel", "_id":"641"}}
{"name":"청주 오늘","location": {"lon": 127.4841294, "lat": 36.63290829},"area":"충북/충청북도/충청도","type":"MOTEL","address":"충북 청주시 상당구 서문동  218-30"}
{"index":{"_index":"hotel", "_id":"642"}}
{"name":"여주 소풍","location": {"lon": 127.6520632, "lat": 37.29261476},"area":"경기도","type":"MOTEL","address":"경기 여주시 상동 57"}
{"index":{"_index":"hotel", "_id":"643"}}
{"name":"천안 KS호텔","location": {"lon": 127.1488906, "lat": 36.80716073},"area":"충남/충청남도/충청도","type":"MOTEL","address":"충남 천안시 동남구 문화동 165-1"}
{"index":{"_index":"hotel", "_id":"644"}}
{"name":"청주 블루시티","location": {"lon": 127.4835612, "lat": 36.65719417},"area":"충북/충청북도/충청도","type":"MOTEL","address":"충북 청주시 청원구 내덕동 642-16"}
{"index":{"_index":"hotel", "_id":"645"}}
{"name":"경주 소노호텔","location": {"lon": 129.20463020000003, "lat": 35.84428901},"area":"경북/경상북도/경상도","type":"MOTEL","address":"경북 경주시 성건동  351-3"}
{"index":{"_index":"hotel", "_id":"646"}}
{"name":"구의 문","location": {"lon": 127.0942929, "lat": 37.54219665},"area":"서울시/서울특별시","type":"MOTEL","address":"서울 광진구 구의동 201-3"}
{"index":{"_index":"hotel", "_id":"647"}}
{"name":"구의 R","location": {"lon": 127.093104, "lat": 37.53979372},"area":"서울시/서울특별시","type":"MOTEL","address":"서울 광진구 구의동 212-17"}
{"index":{"_index":"hotel", "_id":"648"}}
{"name":"창동 론스타","location": {"lon": 127.051199, "lat": 37.65373345},"area":"서울시/서울특별시","type":"MOTEL","address":"서울 도봉구 창동 14-1"}
{"index":{"_index":"hotel", "_id":"649"}}
{"name":"성신여대 R","location": {"lon": 127.0171115, "lat": 37.59392498},"area":"서울시/서울특별시","type":"MOTEL","address":"서울 성북구 동선동4가 81-2"}
{"index":{"_index":"hotel", "_id":"650"}}
{"name":"동암 짝","location": {"lon": 126.7024621, "lat": 37.47020816},"area":"인천시/인천광역시","type":"MOTEL","address":"인천 부평구 십정동 408-5"}
{"index":{"_index":"hotel", "_id":"651"}}
{"name":"잠실 타임","location": {"lon": 127.1087288, "lat": 37.51555424},"area":"서울시/서울특별시","type":"MOTEL","address":"서울 송파구 방이동 34-4"}
{"index":{"_index":"hotel", "_id":"652"}}
{"name":"영등포 코모도","location": {"lon": 126.90728519999999, "lat": 37.51774472},"area":"서울시/서울특별시","type":"MOTEL","address":"서울 영등포구 영등포동3가  19-1"}
{"index":{"_index":"hotel", "_id":"653"}}
{"name":"서초 아트","location": {"lon": 127.01291709999998, "lat": 37.48696961},"area":"서울시/서울특별시","type":"MOTEL","address":"서울 서초구 서초동 1593-4"}
{"index":{"_index":"hotel", "_id":"654"}}
{"name":"시흥 반디","location": {"lon": 126.90255069999999, "lat": 37.45295844},"area":"서울시/서울특별시","type":"MOTEL","address":"서울 금천구 시흥동 888-14"}
{"index":{"_index":"hotel", "_id":"655"}}
{"name":"상봉 호텔 스타","location": {"lon": 127.0937426, "lat": 37.59794706},"area":"서울시/서울특별시","type":"MOTEL","address":"서울 중랑구 망우동 564-1"}
{"index":{"_index":"hotel", "_id":"656"}}
{"name":"역삼 마레","location": {"lon": 127.0298541, "lat": 37.49609555},"area":"서울시/서울특별시","type":"MOTEL","address":"서울 강남구 역삼동 826-45"}
{"index":{"_index":"hotel", "_id":"657"}}
{"name":"부천 YES","location": {"lon": 126.77741329999999, "lat": 37.48299804},"area":"경기도","type":"MOTEL","address":"경기 부천시 소사구 심곡본동 589-10"}
{"index":{"_index":"hotel", "_id":"658"}}
{"name":"포항 G","location": {"lon": 129.3502326, "lat": 36.01529992},"area":"경북/경상북도/경상도","type":"MOTEL","address":"경북 포항시 북구 죽도동 713-11"}
{"index":{"_index":"hotel", "_id":"659"}}
{"name":"화곡 크로싱","location": {"lon": 126.847098, "lat": 37.52898431},"area":"서울시/서울특별시","type":"MOTEL","address":"서울 강서구 화곡동 905-45"}
{"index":{"_index":"hotel", "_id":"660"}}
{"name":"김제 찜","location": {"lon": 126.9152164, "lat": 35.80884554},"area":"전북/전라북도/전라도","type":"MOTEL","address":"전북 김제시 순동 770-20"}
{"index":{"_index":"hotel", "_id":"661"}}
{"name":"익산 올레드라이빙","location": {"lon": 126.95379609999999, "lat": 35.92973906},"area":"전북/전라북도/전라도","type":"MOTEL","address":"전북 익산시 인화동2가 94-7"}
{"index":{"_index":"hotel", "_id":"662"}}
{"name":"익산 반지","location": {"lon": 126.94642009999998, "lat": 35.93038128},"area":"전북/전라북도/전라도","type":"MOTEL","address":"전북 익산시 인화동1가 174"}
{"index":{"_index":"hotel", "_id":"663"}}
{"name":"익산 갤러리","location": {"lon": 126.94516599999999, "lat": 35.92989404},"area":"전북/전라북도/전라도","type":"MOTEL","address":"전북 익산시 인화동1가 198-1"}
{"index":{"_index":"hotel", "_id":"664"}}
{"name":"동대구역 칸","location": {"lon": 128.6312564, "lat": 35.881556},"area":"대구시/대구광역시","type":"MOTEL","address":"대구 동구 신암동 351-4"}
{"index":{"_index":"hotel", "_id":"665"}}
{"name":"경주 엔젤","location": {"lon": 129.2056588, "lat": 35.84546671},"area":"경북/경상북도/경상도","type":"MOTEL","address":"경북 경주시 성건동 220"}
{"index":{"_index":"hotel", "_id":"666"}}
{"name":"전주 호텔히든","location": {"lon": 127.1218125, "lat": 35.84586629},"area":"전북/전라북도/전라도","type":"MOTEL","address":"전북 전주시 덕진구 덕진동1가 1342-5"}
{"index":{"_index":"hotel", "_id":"667"}}
{"name":"전주 호텔ZEN","location": {"lon": 127.1736554, "lat": 35.83079122},"area":"전북/전라북도/전라도","type":"MOTEL","address":"전북 전주시 덕진구 우아동2가 924-8"}
{"index":{"_index":"hotel", "_id":"668"}}
{"name":"전주 W","location": {"lon": 127.1201981, "lat": 35.847072},"area":"전북/전라북도/전라도","type":"MOTEL","address":"전북 전주시 덕진구 덕진동2가 189-21"}
{"index":{"_index":"hotel", "_id":"669"}}
{"name":"전주 자우리","location": {"lon": 127.17368049999999, "lat": 35.83011705},"area":"전북/전라북도/전라도","type":"MOTEL","address":"전북 전주시 덕진구 우아동2가 929-2"}
{"index":{"_index":"hotel", "_id":"670"}}
{"name":"전주 The H","location": {"lon": 127.1203928, "lat": 35.84696726},"area":"전북/전라북도/전라도","type":"MOTEL","address":"전북 전주시 덕진구 덕진동2가 189-23"}
{"index":{"_index":"hotel", "_id":"671"}}
{"name":"전주 드라이브인 무인카","location": {"lon": 127.13116979999998, "lat": 35.83601472},"area":"전북/전라북도/전라도","type":"MOTEL","address":"전북 전주시 덕진구 금암동 764-14"}
{"index":{"_index":"hotel", "_id":"672"}}
{"name":"전주 스위트허브","location": {"lon": 127.1241571, "lat": 35.81612957},"area":"전북/전라북도/전라도","type":"MOTEL","address":"전북 전주시 완산구 중화산동2가 657-2"}
{"index":{"_index":"hotel", "_id":"673"}}
{"name":"전주 호텔벤","location": {"lon": 127.1317497, "lat": 35.8359564},"area":"전북/전라북도/전라도","type":"MOTEL","address":"전북 전주시 덕진구 금암동 698-4"}
{"index":{"_index":"hotel", "_id":"674"}}
{"name":"전주 메이드","location": {"lon": 127.1698399, "lat": 35.83727852},"area":"전북/전라북도/전라도","type":"MOTEL","address":"전북 전주시 덕진구 산정동 871-2"}
{"index":{"_index":"hotel", "_id":"675"}}
{"name":"전주 블루원","location": {"lon": 127.1316207, "lat": 35.83558522},"area":"전북/전라북도/전라도","type":"MOTEL","address":"전북 전주시 덕진구 금암동 699-4"}
{"index":{"_index":"hotel", "_id":"676"}}
{"name":"전주 칸","location": {"lon": 127.16881529999999, "lat": 35.83848044},"area":"전북/전라북도/전라도","type":"MOTEL","address":"전북 전주시 덕진구 산정동 861-9"}
{"index":{"_index":"hotel", "_id":"677"}}
{"name":"전주 SKY","location": {"lon": 127.16939679999999, "lat": 35.8391862},"area":"전북/전라북도/전라도","type":"MOTEL","address":"전북 전주시 덕진구 산정동 857-9"}
{"index":{"_index":"hotel", "_id":"678"}}
{"name":"정읍 뉴알프스관광","location": {"lon": 126.8548582, "lat": 35.58217754},"area":"전북/전라북도/전라도","type":"MOTEL","address":"전북 정읍시 수성동 919-8"}
{"index":{"_index":"hotel", "_id":"679"}}
{"name":"전주 소풍","location": {"lon": 127.1707919, "lat": 35.83733485},"area":"전북/전라북도/전라도","type":"MOTEL","address":"전북 전주시 덕진구 산정동 875-9"}
{"index":{"_index":"hotel", "_id":"680"}}
{"name":"전주 제이","location": {"lon": 127.1702094, "lat": 35.83825135},"area":"전북/전라북도/전라도","type":"MOTEL","address":"전북 전주시 덕진구 산정동 868-4"}
{"index":{"_index":"hotel", "_id":"681"}}
{"name":"광주 S무인텔","location": {"lon": 126.8500926, "lat": 35.14851759},"area":"광주시/광주광역시","type":"MOTEL","address":"광주 서구 치평동 1255-3"}
{"index":{"_index":"hotel", "_id":"682"}}
{"name":"김해 9to9","location": {"lon": 128.9035877, "lat": 35.23476603},"area":"경남/경상남도/경상도","type":"MOTEL","address":"경남 김해시 어방동 1097-5"}
{"index":{"_index":"hotel", "_id":"683"}}
{"name":"김해 쇼","location": {"lon": 128.871934, "lat": 35.25834462},"area":"경남/경상남도/경상도","type":"MOTEL","address":"경남 김해시 삼계동 1509-3"}
{"index":{"_index":"hotel", "_id":"684"}}
{"name":"상남 리버스","location": {"lon": 128.6852524, "lat": 35.22158373},"area":"경남/경상남도/경상도","type":"MOTEL","address":"경남 창원시 성산구 상남동 17-7"}
{"index":{"_index":"hotel", "_id":"685"}}
{"name":"사천 V","location": {"lon": 128.0857604, "lat": 35.08177512},"area":"경남/경상남도/경상도","type":"MOTEL","address":"경남 사천시 사천읍 수석리 348-21"}
{"index":{"_index":"hotel", "_id":"686"}}
{"name":"남해 아리움-구 커플","location": {"lon": 128.0665519, "lat": 34.83313007},"area":"경남/경상남도/경상도","type":"MOTEL","address":"경남 남해군 창선면 1387"}
{"index":{"_index":"hotel", "_id":"687"}}
{"name":"통영 YES","location": {"lon": 128.4200402, "lat": 34.88640751},"area":"경남/경상남도/경상도","type":"MOTEL","address":"경남 통영시 광도면 죽림리 1571-22"}
{"index":{"_index":"hotel", "_id":"688"}}
{"name":"경주 더뷰","location": {"lon": 129.463558, "lat": 35.66977465},"area":"경북/경상북도/경상도","type":"MOTEL","address":"경북 경주시 양남면 수렴리 21-2"}
{"index":{"_index":"hotel", "_id":"689"}}
{"name":"경주 포테이토","location": {"lon": 129.20429620000002, "lat": 35.84245701},"area":"경북/경상북도/경상도","type":"MOTEL","address":"경북 경주시 성건동 373-46"}
{"index":{"_index":"hotel", "_id":"690"}}
{"name":"경주 R","location": {"lon": 129.2233712, "lat": 35.85485697},"area":"경북/경상북도/경상도","type":"MOTEL","address":"경북 경주시 동천동 799-5"}
{"index":{"_index":"hotel", "_id":"691"}}
{"name":"상주 탑","location": {"lon": 128.15388959999999, "lat": 36.41892413},"area":"경북/경상북도/경상도","type":"MOTEL","address":"경북 상주시 무양동 277-1"}
{"index":{"_index":"hotel", "_id":"692"}}
{"name":"경주 휴","location": {"lon": 129.2234076, "lat": 35.85600242},"area":"경북/경상북도/경상도","type":"MOTEL","address":"경북 경주시 동천동 789-10"}
{"index":{"_index":"hotel", "_id":"693"}}
{"name":"경주 쉼","location": {"lon": 129.22337199999998, "lat": 35.85456863},"area":"경북/경상북도/경상도","type":"MOTEL","address":"경북 경주시 동천동 799-6"}
{"index":{"_index":"hotel", "_id":"694"}}
{"name":"구미 웰타임","location": {"lon": 128.4189713, "lat": 36.13727577},"area":"경북/경상북도/경상도","type":"MOTEL","address":"경북 구미시 옥계동 839-6"}
{"index":{"_index":"hotel", "_id":"695"}}
{"name":"신흥 스타","location": {"lon": 129.3639962, "lat": 36.0395903},"area":"경북/경상북도/경상도","type":"MOTEL","address":"경북 포항시 북구 신흥동 693-2"}
{"index":{"_index":"hotel", "_id":"696"}}
{"name":"포항 썬샤인","location": {"lon": 129.3467684, "lat": 36.01366671},"area":"경북/경상북도/경상도","type":"MOTEL","address":"경북 포항시 남구 대잠동 938-14"}
{"index":{"_index":"hotel", "_id":"697"}}
{"name":"안동 샵","location": {"lon": 128.73331399999998, "lat": 36.56407808},"area":"경북/경상북도/경상도","type":"MOTEL","address":"경북 안동시 운흥동 141-45"}
{"index":{"_index":"hotel", "_id":"698"}}
{"name":"안동 쇼","location": {"lon": 128.7027185, "lat": 36.56163939},"area":"경북/경상북도/경상도","type":"MOTEL","address":"경북 안동시 옥동 792-20"}
{"index":{"_index":"hotel", "_id":"699"}}
{"name":"옥동 리치","location": {"lon": 128.7036194, "lat": 36.56197611},"area":"경북/경상북도/경상도","type":"MOTEL","address":"경북 안동시 옥동 640-11"}
{"index":{"_index":"hotel", "_id":"700"}}
{"name":"두류 룩앤톡","location": {"lon": 128.5675574, "lat": 35.84793369},"area":"대구시/대구광역시","type":"MOTEL","address":"대구 달서구 성당동 117-23"}
{"index":{"_index":"hotel", "_id":"701"}}
{"name":"대구역 썬","location": {"lon": 128.5944738, "lat": 35.87723792},"area":"대구시/대구광역시","type":"MOTEL","address":"대구 북구 칠성동2가 302-287"}
{"index":{"_index":"hotel", "_id":"702"}}
{"name":"대구역 필","location": {"lon": 128.5946457, "lat": 35.87719599},"area":"대구시/대구광역시","type":"MOTEL","address":"대구 북구 칠성동2가 302-125"}
{"index":{"_index":"hotel", "_id":"703"}}
{"name":"성서 프렌치","location": {"lon": 128.4892736, "lat": 35.83995408},"area":"대구시/대구광역시","type":"MOTEL","address":"대구 달서구 호산동 711-7"}
{"index":{"_index":"hotel", "_id":"704"}}
{"name":"두류 OH369","location": {"lon": 128.5633114, "lat": 35.84409244},"area":"대구시/대구광역시","type":"MOTEL","address":"대구 남구 대명동 3055-27"}
{"index":{"_index":"hotel", "_id":"705"}}
{"name":"성서 더존","location": {"lon": 128.4888856, "lat": 35.8357775},"area":"대구시/대구광역시","type":"MOTEL","address":"대구 달서구 호림동 14-18"}
{"index":{"_index":"hotel", "_id":"706"}}
{"name":"평리 러시(RUSH)","location": {"lon": 128.5545284, "lat": 35.87291345},"area":"대구시/대구광역시","type":"MOTEL","address":"대구 서구 평리동 1493-5"}
{"index":{"_index":"hotel", "_id":"707"}}
{"name":"성신여대역 파라오","location": {"lon": 127.0150047, "lat": 37.59054474},"area":"서울시/서울특별시","type":"MOTEL","address":"서울 성북구 삼선동4가 351-1"}
{"index":{"_index":"hotel", "_id":"708"}}
{"name":"대연 큐브","location": {"lon": 129.0873633, "lat": 35.13535141},"area":"부산시/부산광역시","type":"MOTEL","address":"부산 남구 대연동 1758-5"}
{"index":{"_index":"hotel", "_id":"709"}}
{"name":"구포 WOW","location": {"lon": 129.0007446, "lat": 35.20989798},"area":"부산시/부산광역시","type":"MOTEL","address":"부산 북구 구포동  211-3"}
{"index":{"_index":"hotel", "_id":"710"}}
{"name":"대연 Oh","location": {"lon": 129.0849376, "lat": 35.13521295},"area":"부산시/부산광역시","type":"MOTEL","address":"부산 남구 대연동 1767-4"}
{"index":{"_index":"hotel", "_id":"711"}}
{"name":"대연 꿈","location": {"lon": 129.09389050000001, "lat": 35.13475574},"area":"부산시/부산광역시","type":"MOTEL","address":"부산 남구 대연동 1729-8"}
{"index":{"_index":"hotel", "_id":"712"}}
{"name":"문현 VOV","location": {"lon": 129.0669185, "lat": 35.13756197},"area":"부산시/부산광역시","type":"MOTEL","address":"부산 남구 문현동 809-5"}
{"index":{"_index":"hotel", "_id":"713"}}
{"name":"부산역 아리아","location": {"lon": 129.0387471, "lat": 35.11645816},"area":"부산시/부산광역시","type":"MOTEL","address":"부산 동구 초량동 465-20"}
{"index":{"_index":"hotel", "_id":"714"}}
{"name":"송정 젬","location": {"lon": 129.20531780000002, "lat": 35.18275528},"area":"부산시/부산광역시","type":"MOTEL","address":"부산 해운대구 송정동 206-2"}
{"index":{"_index":"hotel", "_id":"715"}}
{"name":"서동 아리아","location": {"lon": 129.1076683, "lat": 35.21499316},"area":"부산시/부산광역시","type":"MOTEL","address":"부산 금정구 서동 206-3"}
{"index":{"_index":"hotel", "_id":"716"}}
{"name":"수유 명품","location": {"lon": 127.0218608, "lat": 37.63381637},"area":"서울시/서울특별시","type":"MOTEL","address":"서울 강북구 수유동 48-81"}
{"index":{"_index":"hotel", "_id":"717"}}
{"name":"온천장 오즈","location": {"lon": 129.0829644, "lat": 35.2180126},"area":"부산시/부산광역시","type":"MOTEL","address":"부산 동래구 온천동 180-29"}
{"index":{"_index":"hotel", "_id":"718"}}
{"name":"해운대 파스텔","location": {"lon": 129.1542474, "lat": 35.15993515},"area":"부산시/부산광역시","type":"MOTEL","address":"부산 해운대구 우동 654-6"}
{"index":{"_index":"hotel", "_id":"719"}}
{"name":"해운대 빅애플","location": {"lon": 129.1536595, "lat": 35.15911295},"area":"부산시/부산광역시","type":"MOTEL","address":"부산 해운대구 우동 762-52"}
{"index":{"_index":"hotel", "_id":"720"}}
{"name":"왕십리 2U-투유","location": {"lon": 127.0324524, "lat": 37.56333842},"area":"서울시/서울특별시","type":"MOTEL","address":"서울 성동구 도선동 285-1"}
{"index":{"_index":"hotel", "_id":"721"}}
{"name":"장유 레아","location": {"lon": 128.80302659999998, "lat": 35.19358217},"area":"경남/경상남도/경상도","type":"MOTEL","address":"경남 김해시 대청동 318-12"}
{"index":{"_index":"hotel", "_id":"722"}}
{"name":"부천 파비아","location": {"lon": 126.7867736, "lat": 37.4850732},"area":"경기도","type":"MOTEL","address":"경기 부천시 원미구 심곡동  139-14"}
{"index":{"_index":"hotel", "_id":"723"}}
{"name":"만덕 MVG","location": {"lon": 129.0469759, "lat": 35.21079745},"area":"부산시/부산광역시","type":"MOTEL","address":"부산 북구 만덕동 74-16"}
{"index":{"_index":"hotel", "_id":"724"}}
{"name":"용인 샤인","location": {"lon": 127.10725759999998, "lat": 37.27096776},"area":"경기도","type":"MOTEL","address":"경기 용인시 기흥구 신갈동 69-10"}
{"index":{"_index":"hotel", "_id":"725"}}
{"name":"천안 티롤리아","location": {"lon": 127.1422263, "lat": 36.82720235},"area":"충남/충청남도/충청도","type":"MOTEL","address":"충남 천안시 서북구 성정동 1462"}
{"index":{"_index":"hotel", "_id":"726"}}
{"name":"전주 아모르","location": {"lon": 127.16994440000002, "lat": 35.83855455},"area":"전북/전라북도/전라도","type":"MOTEL","address":"전북 전주시 덕진구 산정동 868-2"}
{"index":{"_index":"hotel", "_id":"727"}}
{"name":"의정부 잉카","location": {"lon": 127.0484101, "lat": 37.73567662},"area":"경기도","type":"MOTEL","address":"경기 의정부시 의정부동 138-13"}
{"index":{"_index":"hotel", "_id":"728"}}
{"name":"해운대 에이원","location": {"lon": 129.1538953, "lat": 35.15923132},"area":"부산시/부산광역시","type":"MOTEL","address":"부산 해운대구 우동 762-53"}
{"index":{"_index":"hotel", "_id":"729"}}
{"name":"광안리 궁","location": {"lon": 129.1275678, "lat": 35.15784757},"area":"부산시/부산광역시","type":"MOTEL","address":"부산 수영구 민락동 23-3"}
{"index":{"_index":"hotel", "_id":"730"}}
{"name":"부천 IMT","location": {"lon": 126.7821676, "lat": 37.48727047},"area":"경기도","type":"MOTEL","address":"경기 부천시 원미구 심곡동 180-6"}
{"index":{"_index":"hotel", "_id":"731"}}
{"name":"은행 샵","location": {"lon": 127.42642439999999, "lat": 36.33098641},"area":"대전시/대전광역시","type":"MOTEL","address":"대전 중구 은행동 112-3"}
{"index":{"_index":"hotel", "_id":"732"}}
{"name":"신림 포도","location": {"lon": 126.9306493, "lat": 37.48490648},"area":"서울시/서울특별시","type":"MOTEL","address":"서울 관악구 신림동  1422-31"}
{"index":{"_index":"hotel", "_id":"733"}}
{"name":"파주 샤이나","location": {"lon": 126.68605759999998, "lat": 37.78035991},"area":"경기도","type":"MOTEL","address":"경기 파주시 탄현면 성동리 666-4"}
{"index":{"_index":"hotel", "_id":"734"}}
{"name":"부평 마이플레이스","location": {"lon": 126.72400800000001, "lat": 37.49364336},"area":"인천시/인천광역시","type":"MOTEL","address":"인천 부평구 부평동 201-72"}
{"index":{"_index":"hotel", "_id":"735"}}
{"name":"서초 스타 프리미어","location": {"lon": 127.0120122, "lat": 37.48513526},"area":"서울시/서울특별시","type":"MOTEL","address":"서울 서초구 서초동 1584-6"}
{"index":{"_index":"hotel", "_id":"736"}}
{"name":"사상 맥스","location": {"lon": 128.98021640000002, "lat": 35.16432261},"area":"부산시/부산광역시","type":"MOTEL","address":"부산 사상구 괘법동 527-6"}
{"index":{"_index":"hotel", "_id":"737"}}
{"name":"석남 플러스유","location": {"lon": 126.67285700000001, "lat": 37.50778106},"area":"인천시/인천광역시","type":"MOTEL","address":"인천 서구 석남동 510-22"}
{"index":{"_index":"hotel", "_id":"738"}}
{"name":"종로 레몬트리","location": {"lon": 126.9910935, "lat": 37.57236691},"area":"서울시/서울특별시","type":"MOTEL","address":"서울 종로구 돈의동 59"}
{"index":{"_index":"hotel", "_id":"739"}}
{"name":"종로 스카이 더클래식","location": {"lon": 126.98815079999999, "lat": 37.56923119},"area":"서울시/서울특별시","type":"MOTEL","address":"서울 종로구 관철동 28-1"}
{"index":{"_index":"hotel", "_id":"740"}}
{"name":"역삼 맨하탄","location": {"lon": 127.03992209999998, "lat": 37.50275282},"area":"서울시/서울특별시","type":"MOTEL","address":"서울 강남구 역삼동 677-14"}
{"index":{"_index":"hotel", "_id":"741"}}
{"name":"수원 피렌체","location": {"lon": 126.9705061, "lat": 37.28123407},"area":"경기도","type":"MOTEL","address":"경기 수원시 권선구 구운동 928-4"}
{"index":{"_index":"hotel", "_id":"742"}}
{"name":"강남 마레","location": {"lon": 127.0447628, "lat": 37.51088175},"area":"서울시/서울특별시","type":"MOTEL","address":"서울 강남구 삼성동 37-16"}
{"index":{"_index":"hotel", "_id":"743"}}
{"name":"신림 궁전","location": {"lon": 126.9330537, "lat": 37.48676034},"area":"서울시/서울특별시","type":"MOTEL","address":"서울 관악구 신림동 1415-29"}
{"index":{"_index":"hotel", "_id":"744"}}
{"name":"부평 S1","location": {"lon": 126.7218929, "lat": 37.49195533},"area":"인천시/인천광역시","type":"MOTEL","address":"인천 부평구 부평동  546-48"}
{"index":{"_index":"hotel", "_id":"745"}}
{"name":"선릉 꾸띠","location": {"lon": 127.05304699999999, "lat": 37.50495332},"area":"서울시/서울특별시","type":"MOTEL","address":"서울 강남구 대치동 890-27"}
{"index":{"_index":"hotel", "_id":"746"}}
{"name":"홍대 더 디자이너스","location": {"lon": 126.9175774, "lat": 37.55190388},"area":"서울시/서울특별시","type":"MOTEL","address":"서울 마포구 서교동 373-9"}
{"index":{"_index":"hotel", "_id":"747"}}
{"name":"용현 이사벨","location": {"lon": 126.63532140000001, "lat": 37.45467047},"area":"인천시/인천광역시","type":"MOTEL","address":"인천 남구 용현동 628-40"}
{"index":{"_index":"hotel", "_id":"748"}}
{"name":"춘천 T호텔","location": {"lon": 127.7256274, "lat": 37.88113901},"area":"강원도","type":"MOTEL","address":"강원 춘천시 소양로3가 180-15"}
{"index":{"_index":"hotel", "_id":"749"}}
{"name":"춘천 호텔스토리","location": {"lon": 127.70040049999999, "lat": 37.86991123},"area":"강원도","type":"MOTEL","address":"강원 춘천시 삼천동 180-10"}
{"index":{"_index":"hotel", "_id":"750"}}
{"name":"탄현 발렌타인","location": {"lon": 126.7626627, "lat": 37.69205685},"area":"경기도","type":"MOTEL","address":"경기 고양시 일산서구 탄현동 1558-5"}
{"index":{"_index":"hotel", "_id":"751"}}
{"name":"제부도 힐","location": {"lon": 126.6189186, "lat": 37.16705329},"area":"경기도","type":"MOTEL","address":"경기 화성시 서신면 제부리 190-79"}
{"index":{"_index":"hotel", "_id":"752"}}
{"name":"안산 뉴스타","location": {"lon": 126.79170970000001, "lat": 37.33426956},"area":"경기도","type":"MOTEL","address":"경기 안산시 단원구 원곡동 960-2"}
{"index":{"_index":"hotel", "_id":"753"}}
{"name":"안산 모텔리어","location": {"lon": 126.83905990000001, "lat": 37.31835914},"area":"경기도","type":"MOTEL","address":"경기 안산시 단원구 고잔동 539-17"}
{"index":{"_index":"hotel", "_id":"754"}}
{"name":"송정 쿤","location": {"lon": 129.20423223, "lat": 35.1833625909},"area":"부산시/부산광역시","type":"MOTEL","address":"부산 해운대구 송정동  201-19"}
{"index":{"_index":"hotel", "_id":"755"}}
{"name":"서면 테마","location": {"lon": 129.05398870000002, "lat": 35.15841497},"area":"부산시/부산광역시","type":"MOTEL","address":"부산 부산진구 부전동 425-2"}
{"index":{"_index":"hotel", "_id":"756"}}
{"name":"당진 a","location": {"lon": 126.79336119999999, "lat": 36.94378205},"area":"충남/충청남도/충청도","type":"MOTEL","address":"충남 당진시 송악읍 복운리 1-206"}
{"index":{"_index":"hotel", "_id":"757"}}
{"name":"당진 짬","location": {"lon": 126.79352379999999, "lat": 36.94343631},"area":"충남/충청남도/충청도","type":"MOTEL","address":"충남 당진시 송악읍 복운리 1-205"}
{"index":{"_index":"hotel", "_id":"758"}}
{"name":"안산 초콜릿","location": {"lon": 126.8409374, "lat": 37.31826437},"area":"경기도","type":"MOTEL","address":"경기 안산시 단원구 고잔동 539-13"}
{"index":{"_index":"hotel", "_id":"759"}}
{"name":"종로 리안호텔","location": {"lon": 126.9909625, "lat": 37.56914494},"area":"서울시/서울특별시","type":"MOTEL","address":"서울 종로구 관수동 107"}
{"index":{"_index":"hotel", "_id":"760"}}
{"name":"남포 아리아","location": {"lon": 129.0339651, "lat": 35.10074276},"area":"부산시/부산광역시","type":"MOTEL","address":"부산 중구 동광동2가 17-26"}
{"index":{"_index":"hotel", "_id":"761"}}
{"name":"동래 인터파크","location": {"lon": 129.0783275, "lat": 35.21307832},"area":"부산시/부산광역시","type":"MOTEL","address":"부산 동래구 온천동 474-15"}
{"index":{"_index":"hotel", "_id":"762"}}
{"name":"동대구역 아바플러스","location": {"lon": 128.62762890000002, "lat": 35.87203154},"area":"대구시/대구광역시","type":"MOTEL","address":"대구 동구 신천동 322-9"}
{"index":{"_index":"hotel", "_id":"763"}}
{"name":"대구 호텔2월-성서","location": {"lon": 128.491264, "lat": 35.84175334},"area":"대구시/대구광역시","type":"MOTEL","address":"대구 달서구 호산동 719"}
{"index":{"_index":"hotel", "_id":"764"}}
{"name":"구미 렌슬럿","location": {"lon": 128.3470983, "lat": 36.12449507},"area":"경북/경상북도/경상도","type":"MOTEL","address":"경북 구미시 원평동 1056-4"}
{"index":{"_index":"hotel", "_id":"765"}}
{"name":"가산 마인드 호텔","location": {"lon": 126.8910259, "lat": 37.47884703},"area":"서울시/서울특별시","type":"MOTEL","address":"서울 금천구 가산동 141-1"}
{"index":{"_index":"hotel", "_id":"766"}}
{"name":"청주 썸","location": {"lon": 127.4882666, "lat": 36.63082241},"area":"충북/충청북도/충청도","type":"MOTEL","address":"충북 청주시 상당구 남문로1가  234-1"}
{"index":{"_index":"hotel", "_id":"767"}}
{"name":"김포 H","location": {"lon": 126.7126028, "lat": 37.6250676},"area":"경기도","type":"MOTEL","address":"경기 김포시 북변동 399-5"}
{"index":{"_index":"hotel", "_id":"768"}}
{"name":"천호 YES","location": {"lon": 127.129908, "lat": 37.53903457},"area":"서울시/서울특별시","type":"MOTEL","address":"서울 강동구 천호동 410-186"}
{"index":{"_index":"hotel", "_id":"769"}}
{"name":"서귀포 제이힐","location": {"lon": 126.4245376, "lat": 33.25096692},"area":"제주도/제주특별자치도","type":"MOTEL","address":"제주도 서귀포시 중문동  2123-2"}
{"index":{"_index":"hotel", "_id":"770"}}
{"name":"서귀포 오렌지호텔","location": {"lon": 126.5574176, "lat": 33.24716494},"area":"제주도/제주특별자치도","type":"MOTEL","address":"제주도 서귀포시 서귀동 317-7"}
{"index":{"_index":"hotel", "_id":"771"}}
{"name":"영통 조이","location": {"lon": 127.0754862, "lat": 37.25334987},"area":"경기도","type":"MOTEL","address":"경기 수원시 영통구 영통동 998-10"}
{"index":{"_index":"hotel", "_id":"772"}}
{"name":"영통 E","location": {"lon": 127.07585900000001, "lat": 37.2519368},"area":"경기도","type":"MOTEL","address":"경기 수원시 영통구 영통동 1010-11"}
{"index":{"_index":"hotel", "_id":"773"}}
{"name":"수원 올레","location": {"lon": 127.02997490000001, "lat": 37.27721171},"area":"경기도","type":"MOTEL","address":"경기 수원시 팔달구 인계동 952-14"}
{"index":{"_index":"hotel", "_id":"774"}}
{"name":"다대포 6월","location": {"lon": 128.970868, "lat": 35.05565521},"area":"부산시/부산광역시","type":"MOTEL","address":"부산 사하구 다대동 724"}
{"index":{"_index":"hotel", "_id":"775"}}
{"name":"남포 더샾","location": {"lon": 129.02551689999999, "lat": 35.09664872},"area":"부산시/부산광역시","type":"MOTEL","address":"부산 서구 충무동1가 2-3"}
{"index":{"_index":"hotel", "_id":"776"}}
{"name":"고흥 BM","location": {"lon": 127.1437614, "lat": 34.52442346},"area":"전남/전라남도/전라도","type":"MOTEL","address":"전남 고흥군 도양읍 봉암리 3871"}
{"index":{"_index":"hotel", "_id":"777"}}
{"name":"문현 호텔1박2일","location": {"lon": 129.0694091, "lat": 35.13766003},"area":"부산시/부산광역시","type":"MOTEL","address":"부산 남구 문현동 402-74"}
{"index":{"_index":"hotel", "_id":"778"}}
{"name":"성서 엠플러스","location": {"lon": 128.49088500000002, "lat": 35.83640515},"area":"대구시/대구광역시","type":"MOTEL","address":"대구 달서구 호림동 18-6"}
{"index":{"_index":"hotel", "_id":"779"}}
{"name":"성서 럭셔리뷰","location": {"lon": 128.4897052, "lat": 35.84220163},"area":"대구시/대구광역시","type":"MOTEL","address":"대구 달서구 호산동 714-4"}
{"index":{"_index":"hotel", "_id":"780"}}
{"name":"온천장 드림","location": {"lon": 129.08180249999998, "lat": 35.22084778},"area":"부산시/부산광역시","type":"MOTEL","address":"부산 동래구 온천동 140-5"}
{"index":{"_index":"hotel", "_id":"781"}}
{"name":"서면 놈","location": {"lon": 129.0552343, "lat": 35.15994744},"area":"부산시/부산광역시","type":"MOTEL","address":"부산 부산진구 부전동 474-103"}
{"index":{"_index":"hotel", "_id":"782"}}
{"name":"제천 도이치","location": {"lon": 128.2163416, "lat": 37.12678519},"area":"충북/충청북도/충청도","type":"MOTEL","address":"충북 제천시 화산동 710-1"}
{"index":{"_index":"hotel", "_id":"783"}}
{"name":"노원 팰리스","location": {"lon": 127.0579856, "lat": 37.65489798},"area":"서울시/서울특별시","type":"MOTEL","address":"서울 노원구 상계동 702-3"}
{"index":{"_index":"hotel", "_id":"784"}}
{"name":"서초 리즈","location": {"lon": 127.01342009999999, "lat": 37.49232515},"area":"서울시/서울특별시","type":"MOTEL","address":"서울 서초구 서초동 1574-8"}
{"index":{"_index":"hotel", "_id":"785"}}
{"name":"상남 제타","location": {"lon": 128.6842987, "lat": 35.22305337},"area":"경남/경상남도/경상도","type":"MOTEL","address":"경남 창원시 성산구 상남동 14-3"}
{"index":{"_index":"hotel", "_id":"786"}}
{"name":"시흥 꾸띠","location": {"lon": 126.7870207, "lat": 37.44100344},"area":"경기도","type":"MOTEL","address":"경기 시흥시 신천동 709-28"}
{"index":{"_index":"hotel", "_id":"787"}}
{"name":"경산 챰","location": {"lon": 128.7357647, "lat": 35.82723811},"area":"경북/경상북도/경상도","type":"MOTEL","address":"경북 경산시 중방동 840-17"}
{"index":{"_index":"hotel", "_id":"788"}}
{"name":"재송 아이엠","location": {"lon": 129.1223483, "lat": 35.18432477},"area":"부산시/부산광역시","type":"MOTEL","address":"부산 해운대구 재송동 1100-8"}
{"index":{"_index":"hotel", "_id":"789"}}
{"name":"동대구역 FOX","location": {"lon": 128.6290973, "lat": 35.86847917},"area":"대구시/대구광역시","type":"MOTEL","address":"대구 동구 신천동 312-8"}
{"index":{"_index":"hotel", "_id":"790"}}
{"name":"재송 맥스","location": {"lon": 129.1221784, "lat": 35.18370055},"area":"부산시/부산광역시","type":"MOTEL","address":"부산 해운대구 재송동 1096-1"}
{"index":{"_index":"hotel", "_id":"791"}}
{"name":"사상 ZA","location": {"lon": 128.9911056, "lat": 35.15075981},"area":"부산시/부산광역시","type":"MOTEL","address":"부산 사상구 감전동 158-19"}
{"index":{"_index":"hotel", "_id":"792"}}
{"name":"광안리 꿈","location": {"lon": 129.1213655, "lat": 35.15597024},"area":"부산시/부산광역시","type":"MOTEL","address":"부산 수영구 민락동 174-6"}
{"index":{"_index":"hotel", "_id":"793"}}
{"name":"감전 MU","location": {"lon": 128.9830739, "lat": 35.15382941},"area":"부산시/부산광역시","type":"MOTEL","address":"부산 사상구 감전동 142-3"}
{"index":{"_index":"hotel", "_id":"794"}}
{"name":"신천 식스티","location": {"lon": 127.08231440000002, "lat": 37.51129043},"area":"서울시/서울특별시","type":"MOTEL","address":"서울 송파구 잠실동 181-19"}
{"index":{"_index":"hotel", "_id":"795"}}
{"name":"진주 망고","location": {"lon": 128.1087811, "lat": 35.16980117},"area":"경남/경상남도/경상도","type":"MOTEL","address":"경남 진주시 상평동 236-4"}
{"index":{"_index":"hotel", "_id":"796"}}
{"name":"영천 시크릿 무인","location": {"lon": 128.92846029999998, "lat": 35.96562667},"area":"경북/경상북도/경상도","type":"MOTEL","address":"경북 영천시 성내동 56"}
{"index":{"_index":"hotel", "_id":"797"}}
{"name":"제주 JM","location": {"lon": 126.4887687, "lat": 33.49040473},"area":"제주도/제주특별자치도","type":"MOTEL","address":"제주도 제주시 연동 260-40"}
{"index":{"_index":"hotel", "_id":"798"}}
{"name":"제주 모나코","location": {"lon": 126.48916299999999, "lat": 33.48922346},"area":"제주도/제주특별자치도","type":"MOTEL","address":"제주도 제주시 연동 261-29"}
{"index":{"_index":"hotel", "_id":"799"}}
{"name":"서귀포 더루케테 호텔","location": {"lon": 126.5630176, "lat": 33.24138185},"area":"제주도/제주특별자치도","type":"MOTEL","address":"제주도 서귀포시 서귀동 698-4"}
{"index":{"_index":"hotel", "_id":"800"}}
{"name":"제주 골든파크","location": {"lon": 126.5129858, "lat": 33.4992441},"area":"제주도/제주특별자치도","type":"MOTEL","address":"제주도 제주시 오라일동 2442-5"}
{"index":{"_index":"hotel", "_id":"801"}}
{"name":"제주 MJ호텔","location": {"lon": 126.4884023, "lat": 33.4890364},"area":"제주도/제주특별자치도","type":"MOTEL","address":"제주도 제주시 연동 261-67"}
{"index":{"_index":"hotel", "_id":"802"}}
{"name":"제주 Atnoon","location": {"lon": 126.4949771, "lat": 33.48933745},"area":"제주도/제주특별자치도","type":"MOTEL","address":"제주도 제주시 연동 292-30"}
{"index":{"_index":"hotel", "_id":"803"}}
{"name":"서귀포 My","location": {"lon": 126.5630375, "lat": 33.24083733},"area":"제주도/제주특별자치도","type":"MOTEL","address":"제주도 서귀포시 서귀동  688-2"}
{"index":{"_index":"hotel", "_id":"804"}}
{"name":"장안 행복한눈물","location": {"lon": 127.0695966, "lat": 37.56955005},"area":"서울시/서울특별시","type":"MOTEL","address":"서울 동대문구 장안동 373-2"}
{"index":{"_index":"hotel", "_id":"805"}}
{"name":"천안 윈저","location": {"lon": 127.11045870000001, "lat": 36.81103416},"area":"충남/충청남도/충청도","type":"MOTEL","address":"충남 천안시 서북구 불당동 697"}
{"index":{"_index":"hotel", "_id":"806"}}
{"name":"제천 안단테","location": {"lon": 128.2180913, "lat": 37.12727179},"area":"충북/충청북도/충청도","type":"MOTEL","address":"충북 제천시 화산동 내토로 557"}
{"index":{"_index":"hotel", "_id":"807"}}
{"name":"제천 에쿠스","location": {"lon": 128.20958100000001, "lat": 37.13893868},"area":"충북/충청북도/충청도","type":"MOTEL","address":"충북 제천시 중앙로2가 28-8"}
{"index":{"_index":"hotel", "_id":"808"}}
{"name":"동대구역 A4-아싸","location": {"lon": 128.62645619999998, "lat": 35.8733775},"area":"대구시/대구광역시","type":"MOTEL","address":"대구 동구 신천동 292-14"}
{"index":{"_index":"hotel", "_id":"809"}}
{"name":"동대구역 아바-AVA","location": {"lon": 128.6240347, "lat": 35.87450966},"area":"대구시/대구광역시","type":"MOTEL","address":"대구 동구 신천동 83-4"}
{"index":{"_index":"hotel", "_id":"810"}}
{"name":"제주 레몬트리","location": {"lon": 126.39500590000002, "lat": 33.48390575},"area":"제주도/제주특별자치도","type":"MOTEL","address":"제주도 제주시 애월읍 하귀2리 2594-1"}
{"index":{"_index":"hotel", "_id":"811"}}
{"name":"제주 시드니","location": {"lon": 126.39571670000001, "lat": 33.48381184},"area":"제주도/제주특별자치도","type":"MOTEL","address":"제주도 제주시 애월읍 하귀2리 2615-7"}
{"index":{"_index":"hotel", "_id":"812"}}
{"name":"제주 모텔아시아","location": {"lon": 126.3907449, "lat": 33.48885442},"area":"제주도/제주특별자치도","type":"MOTEL","address":"제주도 제주시 애월읍 하귀2리 2810-1"}
{"index":{"_index":"hotel", "_id":"813"}}
{"name":"서귀포 성산호텔","location": {"lon": 126.9336318, "lat": 33.46472865},"area":"제주도/제주특별자치도","type":"MOTEL","address":"제주도 서귀포시 성산읍 성산리 237-1"}
{"index":{"_index":"hotel", "_id":"814"}}
{"name":"영등포 수피야","location": {"lon": 126.9071314, "lat": 37.51772298},"area":"서울시/서울특별시","type":"MOTEL","address":"서울 영등포구 영등포동3가 19-4"}
{"index":{"_index":"hotel", "_id":"815"}}
{"name":"안산 돔","location": {"lon": 126.84089820000001, "lat": 37.31756511},"area":"경기도","type":"MOTEL","address":"경기 안산시 단원구 고잔동 540-11"}
{"index":{"_index":"hotel", "_id":"816"}}
{"name":"서귀포 헤라","location": {"lon": 126.93254750000001, "lat": 33.46469922},"area":"제주도/제주특별자치도","type":"MOTEL","address":"제주도 서귀포시 성산읍 성산리 234-6"}
{"index":{"_index":"hotel", "_id":"817"}}
{"name":"서귀포 미도","location": {"lon": 126.9335935, "lat": 33.46417685},"area":"제주도/제주특별자치도","type":"MOTEL","address":"제주도 서귀포시 성산읍 성산리 230-15"}
{"index":{"_index":"hotel", "_id":"818"}}
{"name":"평택 짝","location": {"lon": 127.0905357, "lat": 36.99183269},"area":"경기도","type":"MOTEL","address":"경기 평택시 합정동 733-1"}
{"index":{"_index":"hotel", "_id":"819"}}
{"name":"대학로 짝","location": {"lon": 127.0008015, "lat": 37.58298456},"area":"서울시/서울특별시","type":"MOTEL","address":"서울 종로구 명륜4가 42-1"}
{"index":{"_index":"hotel", "_id":"820"}}
{"name":"일산 아바타","location": {"lon": 126.762751, "lat": 37.68994153},"area":"경기도","type":"MOTEL","address":"경기 고양시 일산서구 탄현동 1575-4"}
{"index":{"_index":"hotel", "_id":"821"}}
{"name":"천안 엠파이어","location": {"lon": 127.1904338, "lat": 36.83411669},"area":"충남/충청남도/충청도","type":"MOTEL","address":"충남 천안시 동남구 안서동 159-7"}
{"index":{"_index":"hotel", "_id":"822"}}
{"name":"사직 페이지","location": {"lon": 129.0686569, "lat": 35.20325201},"area":"부산시/부산광역시","type":"MOTEL","address":"부산 동래구 온천동 1414-5"}
{"index":{"_index":"hotel", "_id":"823"}}
{"name":"원주 H","location": {"lon": 127.9602459, "lat": 37.32553216},"area":"강원도","type":"MOTEL","address":"강원 원주시 단구동 143-8"}
{"index":{"_index":"hotel", "_id":"824"}}
{"name":"진천 소풍짝무인텔","location": {"lon": 127.49240640000001, "lat": 36.89687035},"area":"충북/충청북도/충청도","type":"MOTEL","address":"충북 진천군 덕산면 화상리 569-1"}
{"index":{"_index":"hotel", "_id":"825"}}
{"name":"서면 호텔25H 2호점","location": {"lon": 129.0605028, "lat": 35.14799501},"area":"부산시/부산광역시","type":"MOTEL","address":"부산 부산진구 범천동 858-63"}
{"index":{"_index":"hotel", "_id":"826"}}
{"name":"동천 폭스","location": {"lon": 128.5623381, "lat": 35.94353374},"area":"대구시/대구광역시","type":"MOTEL","address":"대구 북구 동천동 897-3"}
{"index":{"_index":"hotel", "_id":"827"}}
{"name":"죽전 앤-Anne","location": {"lon": 128.5351344, "lat": 35.84717727},"area":"대구시/대구광역시","type":"MOTEL","address":"대구 달서구 감삼동 560-1"}
{"index":{"_index":"hotel", "_id":"828"}}
{"name":"부산 하루","location": {"lon": 129.0604028, "lat": 35.14855183},"area":"부산시/부산광역시","type":"MOTEL","address":"부산 부산진구 범천동 858-22"}
{"index":{"_index":"hotel", "_id":"829"}}
{"name":"용인 샹그리아","location": {"lon": 127.2848357, "lat": 37.23348953},"area":"경기도","type":"MOTEL","address":"경기 용인시 처인구 양지면 양지리 581-3"}
{"index":{"_index":"hotel", "_id":"830"}}
{"name":"대전 발렌타인","location": {"lon": 127.3375611, "lat": 36.35710537},"area":"대전시/대전광역시","type":"MOTEL","address":"대전 유성구 장대동 285-11"}
{"index":{"_index":"hotel", "_id":"831"}}
{"name":"대전 럭셔리","location": {"lon": 127.34066979999999, "lat": 36.35666759},"area":"대전시/대전광역시","type":"MOTEL","address":"대전 유성구 봉명동 441-17"}
{"index":{"_index":"hotel", "_id":"832"}}
{"name":"역삼 발트-VALT","location": {"lon": 127.0357851, "lat": 37.50754389},"area":"서울시/서울특별시","type":"MOTEL","address":"서울 강남구 역삼동 651-3"}
{"index":{"_index":"hotel", "_id":"833"}}
{"name":"일산 오페라","location": {"lon": 129.42893020000002, "lat": 35.49350127},"area":"울산시/울산광역시","type":"MOTEL","address":"울산 동구 일산동 965-1"}
{"index":{"_index":"hotel", "_id":"834"}}
{"name":"신정 하얀성","location": {"lon": 129.3142111, "lat": 35.53918866},"area":"울산시/울산광역시","type":"MOTEL","address":"울산 남구 신정동 584-2"}
{"index":{"_index":"hotel", "_id":"835"}}
{"name":"부산 숨","location": {"lon": 129.0555817, "lat": 35.15979736},"area":"부산시/부산광역시","type":"MOTEL","address":"부산 부산진구 부전동 474-77"}
{"index":{"_index":"hotel", "_id":"836"}}
{"name":"수성 FOX","location": {"lon": 128.6215662, "lat": 35.83812971},"area":"대구시/대구광역시","type":"MOTEL","address":"대구 수성구 두산동 89-3"}
{"index":{"_index":"hotel", "_id":"837"}}
{"name":"수성 QT","location": {"lon": 128.6221293, "lat": 35.83860872},"area":"대구시/대구광역시","type":"MOTEL","address":"대구 수성구 두산동 96-5"}
{"index":{"_index":"hotel", "_id":"838"}}
{"name":"달동 블루","location": {"lon": 129.3350567, "lat": 35.53831447},"area":"울산시/울산광역시","type":"MOTEL","address":"울산 남구 달동 1257-2"}
{"index":{"_index":"hotel", "_id":"839"}}
{"name":"진주 IF","location": {"lon": 128.0870006, "lat": 35.19328822},"area":"경남/경상남도/경상도","type":"MOTEL","address":"경남 진주시 장대동  132-12"}
{"index":{"_index":"hotel", "_id":"840"}}
{"name":"동해 DQ","location": {"lon": 129.1038807, "lat": 37.5378133},"area":"강원도","type":"MOTEL","address":"강원 동해시 부곡동 81-23"}
{"index":{"_index":"hotel", "_id":"841"}}
{"name":"정동진 정동진모텔-해변가","location": {"lon": 129.0376612, "lat": 37.68536907},"area":"강원도","type":"MOTEL","address":"강원 강릉시 강동면 정동진리 35"}
{"index":{"_index":"hotel", "_id":"842"}}
{"name":"사상 호텔이레","location": {"lon": 128.98415020000002, "lat": 35.18241508},"area":"부산시/부산광역시","type":"MOTEL","address":"부산 사상구 모라동 725-9"}
{"index":{"_index":"hotel", "_id":"843"}}
{"name":"진주 스카이","location": {"lon": 128.0783165, "lat": 35.19550736},"area":"경남/경상남도/경상도","type":"MOTEL","address":"경남 진주시 봉곡동 5-18"}
{"index":{"_index":"hotel", "_id":"844"}}
{"name":"양정 V1","location": {"lon": 129.0703719, "lat": 35.17254012},"area":"부산시/부산광역시","type":"MOTEL","address":"부산 부산진구 양정동 369-5"}
{"index":{"_index":"hotel", "_id":"845"}}
{"name":"용현 피아노","location": {"lon": 126.63660149999998, "lat": 37.45639354},"area":"인천시/인천광역시","type":"MOTEL","address":"인천 남구 용현동 624-11"}
{"index":{"_index":"hotel", "_id":"846"}}
{"name":"경산 엔젤","location": {"lon": 128.736634, "lat": 35.82833574},"area":"경북/경상북도/경상도","type":"MOTEL","address":"경북 경산시 중방동 837-15"}
{"index":{"_index":"hotel", "_id":"847"}}
{"name":"강화 힐링S","location": {"lon": 126.4894691, "lat": 37.6731892},"area":"인천시/인천광역시","type":"MOTEL","address":"인천 강화군 불은면 두운리 1043-3"}
{"index":{"_index":"hotel", "_id":"848"}}
{"name":"도봉 금촌","location": {"lon": 127.0395567, "lat": 37.65890596},"area":"서울시/서울특별시","type":"MOTEL","address":"서울 도봉구 쌍문동 716-24"}
{"index":{"_index":"hotel", "_id":"849"}}
{"name":"춘천 베네","location": {"lon": 127.7237695, "lat": 37.86830317},"area":"강원도","type":"MOTEL","address":"강원 춘천시 퇴계동  737-2"}
{"index":{"_index":"hotel", "_id":"850"}}
{"name":"건대 Q","location": {"lon": 127.0669956, "lat": 37.54703744},"area":"서울시/서울특별시","type":"MOTEL","address":"서울 광진구 화양동 23-39"}
{"index":{"_index":"hotel", "_id":"851"}}
{"name":"예산 신라호텔","location": {"lon": 126.82861240000001, "lat": 36.67996435},"area":"충남/충청남도/충청도","type":"MOTEL","address":"충남 예산군 예산읍 주교리 325-6"}
{"index":{"_index":"hotel", "_id":"852"}}
{"name":"사하 맥스","location": {"lon": 128.96960579999998, "lat": 35.10564125},"area":"부산시/부산광역시","type":"MOTEL","address":"부산 사하구 당리동 303-18"}
{"index":{"_index":"hotel", "_id":"853"}}
{"name":"장유 페이지","location": {"lon": 128.8149928, "lat": 35.19653234},"area":"경남/경상남도/경상도","type":"MOTEL","address":"경남 김해시 신문동 501"}
{"index":{"_index":"hotel", "_id":"854"}}
{"name":"송정 세븐","location": {"lon": 129.2048733, "lat": 35.18271652},"area":"부산시/부산광역시","type":"MOTEL","address":"부산 해운대구 송정동 203-5"}
{"index":{"_index":"hotel", "_id":"855"}}
{"name":"사상 HI","location": {"lon": 128.9836693, "lat": 35.16136071},"area":"부산시/부산광역시","type":"MOTEL","address":"부산 사상구 괘법동 559-19"}
{"index":{"_index":"hotel", "_id":"856"}}
{"name":"상남 락","location": {"lon": 128.68434440000001, "lat": 35.22122506},"area":"경남/경상남도/경상도","type":"MOTEL","address":"경남 창원시 성산구 상남동 20-2"}
{"index":{"_index":"hotel", "_id":"857"}}
{"name":"용호 인샬라","location": {"lon": 128.6811605, "lat": 35.22979126},"area":"경남/경상남도/경상도","type":"MOTEL","address":"경남 창원시 의창구 용호동 73-22"}
{"index":{"_index":"hotel", "_id":"858"}}
{"name":"유성 누보레","location": {"lon": 127.34507040000001, "lat": 36.35307188},"area":"대전시/대전광역시","type":"MOTEL","address":"대전 유성구 봉명동 548-12"}
{"index":{"_index":"hotel", "_id":"859"}}
{"name":"대전 KK","location": {"lon": 127.3882738, "lat": 36.35030788},"area":"대전시/대전광역시","type":"MOTEL","address":"대전 서구 둔산동 1446"}
{"index":{"_index":"hotel", "_id":"860"}}
{"name":"대전 TOP","location": {"lon": 127.39204099999999, "lat": 36.33821262},"area":"대전시/대전광역시","type":"MOTEL","address":"대전 서구 용문동 594-16"}
{"index":{"_index":"hotel", "_id":"861"}}
{"name":"대전 굿타임","location": {"lon": 127.4378135, "lat": 36.35285819},"area":"대전시/대전광역시","type":"MOTEL","address":"대전 동구 용전동 67-5"}
{"index":{"_index":"hotel", "_id":"862"}}
{"name":"대전 KB","location": {"lon": 127.43849569999999, "lat": 36.35212394},"area":"대전시/대전광역시","type":"MOTEL","address":"대전 동구 용전동 69-2"}
{"index":{"_index":"hotel", "_id":"863"}}
{"name":"유성 실크로드","location": {"lon": 127.3485815, "lat": 36.35397368},"area":"대전시/대전광역시","type":"MOTEL","address":"대전 유성구 봉명동 541-28"}
{"index":{"_index":"hotel", "_id":"864"}}
{"name":"유성 화이트캐슬","location": {"lon": 127.3451501, "lat": 36.35398004},"area":"대전시/대전광역시","type":"MOTEL","address":"대전 유성구 봉명동  547-10"}
{"index":{"_index":"hotel", "_id":"865"}}
{"name":"논산 예그리나","location": {"lon": 127.09512579999999, "lat": 36.20728336},"area":"충남/충청남도/충청도","type":"MOTEL","address":"충남 논산시 취암동 1031-8"}
{"index":{"_index":"hotel", "_id":"866"}}
{"name":"계룡 비너스","location": {"lon": 127.2435327, "lat": 36.28984625},"area":"충남/충청남도/충청도","type":"MOTEL","address":"충남 계룡시 엄사면 엄사리 176-1"}
{"index":{"_index":"hotel", "_id":"867"}}
{"name":"대전 리치텔","location": {"lon": 127.4376748, "lat": 36.35275056},"area":"대전시/대전광역시","type":"MOTEL","address":"대전 동구 용전동 67-6"}
{"index":{"_index":"hotel", "_id":"868"}}
{"name":"울주 K9","location": {"lon": 129.05424340000002, "lat": 35.61740469},"area":"울산시/울산광역시","type":"MOTEL","address":"울산 울주군 상북면 덕현리 219-9"}
{"index":{"_index":"hotel", "_id":"869"}}
{"name":"서면역 하루호텔","location": {"lon": 129.0612276, "lat": 35.15619407},"area":"부산시/부산광역시","type":"MOTEL","address":"부산 부산진구 부전동 168-347"}
{"index":{"_index":"hotel", "_id":"870"}}
{"name":"범천 Q5","location": {"lon": 129.0628292, "lat": 35.1424475},"area":"부산시/부산광역시","type":"MOTEL","address":"부산 부산진구 범천동 839-11"}
{"index":{"_index":"hotel", "_id":"871"}}
{"name":"서면 M&W","location": {"lon": 129.0563299, "lat": 35.15970535},"area":"부산시/부산광역시","type":"MOTEL","address":"부산 부산진구 부전동 398-8"}
{"index":{"_index":"hotel", "_id":"872"}}
{"name":"미아 샤인","location": {"lon": 127.01913490000001, "lat": 37.62467724},"area":"서울시/서울특별시","type":"MOTEL","address":"서울 강북구 미아동 775-26"}
{"index":{"_index":"hotel", "_id":"873"}}
{"name":"불광 솔","location": {"lon": 126.9299994, "lat": 37.60922951},"area":"서울시/서울특별시","type":"MOTEL","address":"서울 은평구 대조동 15-57"}
{"index":{"_index":"hotel", "_id":"874"}}
{"name":"은평 선일","location": {"lon": 126.9298274, "lat": 37.60912489},"area":"서울시/서울특별시","type":"MOTEL","address":"서울 은평구 대조동 15-25"}
{"index":{"_index":"hotel", "_id":"875"}}
{"name":"온천장 큐브","location": {"lon": 129.08135420000002, "lat": 35.21825658},"area":"부산시/부산광역시","type":"MOTEL","address":"부산 동래구 온천동 189-63"}
{"index":{"_index":"hotel", "_id":"876"}}
{"name":"수성 ZOOM","location": {"lon": 128.6220457, "lat": 35.84102491},"area":"대구시/대구광역시","type":"MOTEL","address":"대구 수성구 황금동 862-5"}
{"index":{"_index":"hotel", "_id":"877"}}
{"name":"동래 369","location": {"lon": 129.08350520000002, "lat": 35.2044608},"area":"부산시/부산광역시","type":"MOTEL","address":"부산 동래구 명륜동 378"}
{"index":{"_index":"hotel", "_id":"878"}}
{"name":"사직 WOW","location": {"lon": 129.0700734, "lat": 35.20663055},"area":"부산시/부산광역시","type":"MOTEL","address":"부산 동래구 온천동 1424-2"}
{"index":{"_index":"hotel", "_id":"879"}}
{"name":"종로 아비숑","location": {"lon": 126.9895987, "lat": 37.57642127},"area":"서울시/서울특별시","type":"MOTEL","address":"서울 종로구 운니동 37-2"}
{"index":{"_index":"hotel", "_id":"880"}}
{"name":"온천장 CG","location": {"lon": 129.0792091, "lat": 35.21613069},"area":"부산시/부산광역시","type":"MOTEL","address":"부산 동래구 온천동 451-4"}
{"index":{"_index":"hotel", "_id":"881"}}
{"name":"동래 G&G","location": {"lon": 129.08344830000001, "lat": 35.20429596},"area":"부산시/부산광역시","type":"MOTEL","address":"부산 동래구 명륜동 383-2"}
{"index":{"_index":"hotel", "_id":"882"}}
{"name":"김해 컨시드","location": {"lon": 128.90591709999998, "lat": 35.24494153},"area":"경남/경상남도/경상도","type":"MOTEL","address":"경남 김해시 어방동 522-6"}
{"index":{"_index":"hotel", "_id":"883"}}
{"name":"송정 COCO","location": {"lon": 129.2053085, "lat": 35.18225081},"area":"부산시/부산광역시","type":"MOTEL","address":"부산 해운대구 송정동 206-10"}
{"index":{"_index":"hotel", "_id":"884"}}
{"name":"파주 반지무인텔","location": {"lon": 126.6868219, "lat": 37.78432617},"area":"경기도","type":"MOTEL","address":"경기 파주시 탄현면 성동리 266-12"}
{"index":{"_index":"hotel", "_id":"885"}}
{"name":"주안 H호텔","location": {"lon": 126.6851378, "lat": 37.45974762},"area":"인천시/인천광역시","type":"MOTEL","address":"인천 남구 주안동 271-26"}
{"index":{"_index":"hotel", "_id":"886"}}
{"name":"강남 타라","location": {"lon": 127.05189009999998, "lat": 37.50669097},"area":"서울시/서울특별시","type":"MOTEL","address":"서울 강남구 삼성동 142-19"}
{"index":{"_index":"hotel", "_id":"887"}}
{"name":"신촌 Atnoon","location": {"lon": 126.9361262, "lat": 37.55394081},"area":"서울시/서울특별시","type":"MOTEL","address":"서울 마포구 노고산동 106-9"}
{"index":{"_index":"hotel", "_id":"888"}}
{"name":"부평 CF","location": {"lon": 126.71954950000001, "lat": 37.49086858},"area":"인천시/인천광역시","type":"MOTEL","address":"인천 부평구 부평동 534-178"}
{"index":{"_index":"hotel", "_id":"889"}}
{"name":"주안 에떼 - ETE HOTEL","location": {"lon": 126.67808600000001, "lat": 37.46262987},"area":"인천시/인천광역시","type":"MOTEL","address":"인천 남구 주안동 219-2"}
{"index":{"_index":"hotel", "_id":"890"}}
{"name":"영등포 부띠크 Hotel SB","location": {"lon": 126.91036609999999, "lat": 37.5181039},"area":"서울시/서울특별시","type":"MOTEL","address":"서울 영등포구 영등포동3가 12-22"}
{"index":{"_index":"hotel", "_id":"891"}}
{"name":"문산 M","location": {"lon": 126.7865133, "lat": 37.85943997},"area":"경기도","type":"MOTEL","address":"경기 파주시 문산읍 선유리 952-14"}
{"index":{"_index":"hotel", "_id":"892"}}
{"name":"파주 신데렐라","location": {"lon": 126.68605759999998, "lat": 37.78035991},"area":"경기도","type":"MOTEL","address":"경기 파주시 탄현면 성동리 666-4"}
{"index":{"_index":"hotel", "_id":"893"}}
{"name":"파주 세띠앙","location": {"lon": 126.77239209999999, "lat": 37.76424367},"area":"경기도","type":"MOTEL","address":"경기 파주시 금촌동 329-323"}
{"index":{"_index":"hotel", "_id":"894"}}
{"name":"파주 W","location": {"lon": 126.91231289999999, "lat": 37.7754082},"area":"경기도","type":"MOTEL","address":"경기 파주시 광탄면 기산리 552-4"}
{"index":{"_index":"hotel", "_id":"895"}}
{"name":"부평 갤러리아","location": {"lon": 126.72756480000001, "lat": 37.49198656},"area":"인천시/인천광역시","type":"MOTEL","address":"인천 부평구 부평동 585-5"}
{"index":{"_index":"hotel", "_id":"896"}}
{"name":"수원 MK","location": {"lon": 127.03113400000001, "lat": 37.26619708},"area":"경기도","type":"MOTEL","address":"경기 수원시 팔달구 인계동 1039-10"}
{"index":{"_index":"hotel", "_id":"897"}}
{"name":"일산 니꼬","location": {"lon": 126.7619733, "lat": 37.69205546},"area":"경기도","type":"MOTEL","address":"경기 고양시 일산서구 탄현동 1558-2"}
{"index":{"_index":"hotel", "_id":"898"}}
{"name":"춘천 오띠모","location": {"lon": 127.7280104, "lat": 37.88349915},"area":"강원도","type":"MOTEL","address":"강원 춘천시 요선동 5-10"}
{"index":{"_index":"hotel", "_id":"899"}}
{"name":"신도림 M7","location": {"lon": 126.8911131, "lat": 37.50287877},"area":"서울시/서울특별시","type":"MOTEL","address":"서울 구로구 구로동 44-2"}
{"index":{"_index":"hotel", "_id":"900"}}
{"name":"춘천 호텔몽","location": {"lon": 127.7269287, "lat": 37.86966754},"area":"강원도","type":"MOTEL","address":"강원 춘천시 효자동 685-5"}
{"index":{"_index":"hotel", "_id":"901"}}
{"name":"부천 팔레스","location": {"lon": 126.7513703, "lat": 37.50683715},"area":"경기도","type":"MOTEL","address":"경기 부천시 원미구 상동 532-15"}
{"index":{"_index":"hotel", "_id":"902"}}
{"name":"사상 젬","location": {"lon": 128.98331159999998, "lat": 35.18132939},"area":"부산시/부산광역시","type":"MOTEL","address":"부산 사상구 덕포동 243-12"}
{"index":{"_index":"hotel", "_id":"903"}}
{"name":"영주 부띠끄 오늘","location": {"lon": 128.6223743, "lat": 36.82670977},"area":"경북/경상북도/경상도","type":"MOTEL","address":"경북 영주시 영주동 334-18"}
{"index":{"_index":"hotel", "_id":"904"}}
{"name":"해운대 cloud9","location": {"lon": 129.15970249999998, "lat": 35.16073913},"area":"부산시/부산광역시","type":"MOTEL","address":"부산 해운대구 우동 545-3"}
{"index":{"_index":"hotel", "_id":"905"}}
{"name":"포천 이리스","location": {"lon": 127.2548057, "lat": 37.80820171},"area":"경기도","type":"MOTEL","address":"경기 포천시 내촌면 소학리 203-6"}
{"index":{"_index":"hotel", "_id":"906"}}
{"name":"수원 버틀러","location": {"lon": 127.0350524, "lat": 37.26540668},"area":"경기도","type":"MOTEL","address":"경기 수원시 팔달구 인계동 1115-14"}
{"index":{"_index":"hotel", "_id":"907"}}
{"name":"전주 야","location": {"lon": 127.17393840000001, "lat": 35.83064301},"area":"전북/전라북도/전라도","type":"MOTEL","address":"전북 전주시 덕진구 우아동2가 924-5"}
{"index":{"_index":"hotel", "_id":"908"}}
{"name":"신촌 신디호텔","location": {"lon": 126.93788470000001, "lat": 37.55685738},"area":"서울시/서울특별시","type":"MOTEL","address":"서울 서대문구 창천동 29-36"}
{"index":{"_index":"hotel", "_id":"909"}}
{"name":"고양 린","location": {"lon": 126.89983529999999, "lat": 37.71873097},"area":"경기도","type":"MOTEL","address":"경기 고양시 덕양구 벽제동 433-1"}
{"index":{"_index":"hotel", "_id":"910"}}
{"name":"한성대입구 메이","location": {"lon": 127.0103305, "lat": 37.58891986},"area":"서울시/서울특별시","type":"MOTEL","address":"서울 성북구 삼선동4가 9-6"}
{"index":{"_index":"hotel", "_id":"911"}}
{"name":"장유 투헤븐","location": {"lon": 128.8031564, "lat": 35.19389025},"area":"경남/경상남도/경상도","type":"MOTEL","address":"경남 김해시 대청동 318-4"}
{"index":{"_index":"hotel", "_id":"912"}}
{"name":"해운대 호텔 잉카","location": {"lon": 129.1570438, "lat": 35.16144976},"area":"부산시/부산광역시","type":"MOTEL","address":"부산 해운대구 우동 638-11"}
{"index":{"_index":"hotel", "_id":"913"}}
{"name":"안락 라찌","location": {"lon": 129.09763470000001, "lat": 35.19683092},"area":"부산시/부산광역시","type":"MOTEL","address":"부산 동래구 안락동 756-19"}
{"index":{"_index":"hotel", "_id":"914"}}
{"name":"제주 호텔엘린","location": {"lon": 126.49543340000001, "lat": 33.48932489},"area":"제주도/제주특별자치도","type":"MOTEL","address":"제주도 제주시 연동 292-32"}
{"index":{"_index":"hotel", "_id":"915"}}
{"name":"해운대 게리쿠퍼","location": {"lon": 129.1590514, "lat": 35.16200874},"area":"부산시/부산광역시","type":"MOTEL","address":"부산 해운대구 우동 541-22"}
{"index":{"_index":"hotel", "_id":"916"}}
{"name":"시흥 멀티도로시","location": {"lon": 126.8994338, "lat": 37.45454161},"area":"서울시/서울특별시","type":"MOTEL","address":"서울 금천구 시흥동 122-4"}
{"index":{"_index":"hotel", "_id":"917"}}
{"name":"평촌 쁠랑","location": {"lon": 126.96197439999999, "lat": 37.39340278},"area":"경기도","type":"MOTEL","address":"경기 안양시 동안구 관양동 1603-8"}
{"index":{"_index":"hotel", "_id":"918"}}
{"name":"수성 TOP","location": {"lon": 128.621822, "lat": 35.83634199},"area":"대구시/대구광역시","type":"MOTEL","address":"대구 수성구 두산동 102-2"}
{"index":{"_index":"hotel", "_id":"919"}}
{"name":"수원 벅스79","location": {"lon": 127.03106170000001, "lat": 37.26588354},"area":"경기도","type":"MOTEL","address":"경기 수원시 팔달구 인계동 1040-1"}
{"index":{"_index":"hotel", "_id":"920"}}
{"name":"주안 러블리","location": {"lon": 126.68549440000001, "lat": 37.45987831},"area":"인천시/인천광역시","type":"MOTEL","address":"인천 남구 주안동 271-36"}
{"index":{"_index":"hotel", "_id":"921"}}
{"name":"수원 더 녹스","location": {"lon": 127.0301735, "lat": 37.26644602},"area":"경기도","type":"MOTEL","address":"경기 수원시 팔달구 인계동 1034-14"}
{"index":{"_index":"hotel", "_id":"922"}}
{"name":"부평 쁠랑","location": {"lon": 126.7272257, "lat": 37.49193893},"area":"인천시/인천광역시","type":"MOTEL","address":"인천 부평구 부평동 586-1"}
{"index":{"_index":"hotel", "_id":"923"}}
{"name":"안산 몽","location": {"lon": 126.86342959999999, "lat": 37.28774375},"area":"경기도","type":"MOTEL","address":"경기 안산시 상록구 본오동 948-16"}
{"index":{"_index":"hotel", "_id":"924"}}
{"name":"포항 WOW","location": {"lon": 129.3647833, "lat": 36.01486599},"area":"경북/경상북도/경상도","type":"MOTEL","address":"경북 포항시 남구 대도동 125-2"}
{"index":{"_index":"hotel", "_id":"925"}}
{"name":"창동 베르사유","location": {"lon": 127.05139390000001, "lat": 37.65377661},"area":"서울시/서울특별시","type":"MOTEL","address":"서울 도봉구 창동 14-2"}
{"index":{"_index":"hotel", "_id":"926"}}
{"name":"노원 리츠","location": {"lon": 127.0576365, "lat": 37.65481887},"area":"서울시/서울특별시","type":"MOTEL","address":"서울 노원구 상계동 702-1"}
{"index":{"_index":"hotel", "_id":"927"}}
{"name":"부천 호텔마음","location": {"lon": 126.78687479999999, "lat": 37.48445349},"area":"경기도","type":"MOTEL","address":"경기 부천시 원미구 심곡동 140-1"}
{"index":{"_index":"hotel", "_id":"928"}}
{"name":"시흥 궁","location": {"lon": 126.7465326, "lat": 37.33703225},"area":"경기도","type":"MOTEL","address":"경기 시흥시 정왕동 1783-7"}
{"index":{"_index":"hotel", "_id":"929"}}
{"name":"제천 밀라노","location": {"lon": 128.2101966, "lat": 37.1402767},"area":"충북/충청북도/충청도","type":"MOTEL","address":"충북 제천시 중앙로2가 24-5"}
{"index":{"_index":"hotel", "_id":"930"}}
{"name":"의정부 7th street-7번가","location": {"lon": 127.04478470000001, "lat": 37.73633756},"area":"경기도","type":"MOTEL","address":"경기 의정부시 의정부동 499-4"}
{"index":{"_index":"hotel", "_id":"931"}}
{"name":"구리 나인홀","location": {"lon": 127.14173670000001, "lat": 37.59763609},"area":"경기도","type":"MOTEL","address":"경기 구리시 수택동 426-46"}
{"index":{"_index":"hotel", "_id":"932"}}
{"name":"인계동 XYM","location": {"lon": 127.0298169, "lat": 37.27692342},"area":"경기도","type":"MOTEL","address":"경기 수원시 팔달구 인계동 952-16"}
{"index":{"_index":"hotel", "_id":"933"}}
{"name":"부평 아이유","location": {"lon": 126.7225104, "lat": 37.50354729},"area":"인천시/인천광역시","type":"MOTEL","address":"인천 부평구 부평동 433-87"}
{"index":{"_index":"hotel", "_id":"934"}}
{"name":"장안 리조트","location": {"lon": 127.0700817, "lat": 37.57030299},"area":"서울시/서울특별시","type":"MOTEL","address":"서울 동대문구 장안동 372-12"}
{"index":{"_index":"hotel", "_id":"935"}}
{"name":"서울대 테마25","location": {"lon": 126.9536185, "lat": 37.47995858},"area":"서울시/서울특별시","type":"MOTEL","address":"서울 관악구 봉천동 1599-5"}
{"index":{"_index":"hotel", "_id":"936"}}
{"name":"서울대 V","location": {"lon": 126.9533021, "lat": 37.47958363},"area":"서울시/서울특별시","type":"MOTEL","address":"서울 관악구 봉천동 854-15"}
{"index":{"_index":"hotel", "_id":"937"}}
{"name":"연안부두 이츠호텔","location": {"lon": 126.6023838, "lat": 37.45360197},"area":"인천시/인천광역시","type":"MOTEL","address":"인천 중구 항동7가 58-131"}
{"index":{"_index":"hotel", "_id":"938"}}
{"name":"불광 Y","location": {"lon": 126.93040309999999, "lat": 37.60866032},"area":"서울시/서울특별시","type":"MOTEL","address":"서울 은평구 대조동 15-126"}
{"index":{"_index":"hotel", "_id":"939"}}
{"name":"부천 시크릿","location": {"lon": 126.7506236, "lat": 37.50690045},"area":"경기도","type":"MOTEL","address":"경기 부천시 원미구 상동 532-18"}
{"index":{"_index":"hotel", "_id":"940"}}
{"name":"화곡 블루","location": {"lon": 126.8403267, "lat": 37.52962047},"area":"서울시/서울특별시","type":"MOTEL","address":"서울 강서구 화곡동 922-15"}
{"index":{"_index":"hotel", "_id":"941"}}
{"name":"광진 두바이","location": {"lon": 127.0709293, "lat": 37.54731265},"area":"서울시/서울특별시","type":"MOTEL","address":"서울 광진구 화양동 121-9"}
{"index":{"_index":"hotel", "_id":"942"}}
{"name":"원주 뉴리베라","location": {"lon": 127.955871, "lat": 37.35743765},"area":"강원도","type":"MOTEL","address":"강원 원주시 태장동 700-47"}
{"index":{"_index":"hotel", "_id":"943"}}
{"name":"서울대 54번가","location": {"lon": 126.95058799999998, "lat": 37.48069257},"area":"서울시/서울특별시","type":"MOTEL","address":"서울 관악구 봉천동 868-18"}
{"index":{"_index":"hotel", "_id":"944"}}
{"name":"오산 초콜릿","location": {"lon": 127.0338959, "lat": 37.13981485},"area":"경기도","type":"MOTEL","address":"경기 오산시 벌음동 348-3"}
{"index":{"_index":"hotel", "_id":"945"}}
{"name":"군포 리츠","location": {"lon": 126.94565279999999, "lat": 37.35110587},"area":"경기도","type":"MOTEL","address":"경기 군포시 당동 783-62"}
{"index":{"_index":"hotel", "_id":"946"}}
{"name":"용호 노블레스","location": {"lon": 129.1111527, "lat": 35.11827497},"area":"부산시/부산광역시","type":"MOTEL","address":"부산 남구 용호동 395-54"}
{"index":{"_index":"hotel", "_id":"947"}}
{"name":"서면 V","location": {"lon": 129.0557398, "lat": 35.15474456},"area":"부산시/부산광역시","type":"MOTEL","address":"부산 부산진구 부전동 515-9"}
{"index":{"_index":"hotel", "_id":"948"}}
{"name":"신림 르네상스","location": {"lon": 126.93043670000002, "lat": 37.48489194},"area":"서울시/서울특별시","type":"MOTEL","address":"서울 관악구 신림동 1422-34"}
{"index":{"_index":"hotel", "_id":"949"}}
{"name":"선릉 프린스","location": {"lon": 127.0531008, "lat": 37.50422528},"area":"서울시/서울특별시","type":"MOTEL","address":"서울 강남구 대치동 890-40"}
{"index":{"_index":"hotel", "_id":"950"}}
{"name":"양주 필","location": {"lon": 126.9752797, "lat": 37.74275117},"area":"경기도","type":"MOTEL","address":"경기 양주시 장흥면 부곡리 124-36"}
{"index":{"_index":"hotel", "_id":"951"}}
{"name":"양주 드라이브인 라온","location": {"lon": 126.9578638, "lat": 37.779084000000005},"area":"경기도","type":"MOTEL","address":"경기 양주시 백석읍 기산리 216-1"}
{"index":{"_index":"hotel", "_id":"952"}}
{"name":"신촌 spring21","location": {"lon": 126.9376814, "lat": 37.55638875},"area":"서울시/서울특별시","type":"MOTEL","address":"서울 서대문구 창천동 29-68"}
{"index":{"_index":"hotel", "_id":"953"}}
{"name":"남구 코아","location": {"lon": 126.90113559999999, "lat": 35.13412296},"area":"광주시/광주광역시","type":"MOTEL","address":"광주 남구 백운동 635-25"}
{"index":{"_index":"hotel", "_id":"954"}}
{"name":"해운대 콤마","location": {"lon": 129.1572071, "lat": 35.16098186},"area":"부산시/부산광역시","type":"MOTEL","address":"부산 해운대구 우동 637-7"}
{"index":{"_index":"hotel", "_id":"955"}}
{"name":"성서 붐","location": {"lon": 128.4866477, "lat": 35.84300369},"area":"대구시/대구광역시","type":"MOTEL","address":"대구 달서구 호산동 708-2"}
{"index":{"_index":"hotel", "_id":"956"}}
{"name":"광주 프라다","location": {"lon": 126.80300430000001, "lat": 35.16322165},"area":"광주시/광주광역시","type":"MOTEL","address":"광주 광산구 우산동 1574-10"}
{"index":{"_index":"hotel", "_id":"957"}}
{"name":"수원 A플러스","location": {"lon": 127.02968190000001, "lat": 37.26625873},"area":"경기도","type":"MOTEL","address":"경기 수원시 팔달구 인계동 1033-4"}
{"index":{"_index":"hotel", "_id":"958"}}
{"name":"동구 디자인i","location": {"lon": 126.9132274, "lat": 35.14612395},"area":"광주시/광주광역시","type":"MOTEL","address":"광주 동구 불로동 43-3"}
{"index":{"_index":"hotel", "_id":"959"}}
{"name":"여수 마이다스","location": {"lon": 127.7246065, "lat": 34.7324745},"area":"전남/전라남도/전라도","type":"MOTEL","address":"전남 여수시 봉산동 260-20"}
{"index":{"_index":"hotel", "_id":"960"}}
{"name":"광주 G","location": {"lon": 126.90320759999999, "lat": 35.16710001},"area":"광주시/광주광역시","type":"MOTEL","address":"광주 북구 신안동 128-12"}
{"index":{"_index":"hotel", "_id":"961"}}
{"name":"상무지구 VIP","location": {"lon": 126.8495783, "lat": 35.14892077},"area":"광주시/광주광역시","type":"MOTEL","address":"광주 서구 치평동 1255-11"}
{"index":{"_index":"hotel", "_id":"962"}}
{"name":"양지 O2","location": {"lon": 127.3153264, "lat": 37.22082288},"area":"경기도","type":"MOTEL","address":"경기 용인시 처인구 양지면 평창리 676"}
{"index":{"_index":"hotel", "_id":"963"}}
{"name":"안양 카카오","location": {"lon": 126.9254608, "lat": 37.39476577},"area":"경기도","type":"MOTEL","address":"경기 안양시 만안구 안양동 622-382"}
{"index":{"_index":"hotel", "_id":"964"}}
{"name":"용인 블루","location": {"lon": 127.2588611, "lat": 37.22503608},"area":"경기도","type":"MOTEL","address":"경기 용인시 처인구 양지면 송문리 153-2"}
{"index":{"_index":"hotel", "_id":"965"}}
{"name":"역삼 아나","location": {"lon": 127.0405183, "lat": 37.50118487},"area":"서울시/서울특별시","type":"MOTEL","address":"서울 강남구 역삼동 719-12"}
{"index":{"_index":"hotel", "_id":"966"}}
{"name":"유성 리치","location": {"lon": 127.3413396, "lat": 36.35695765},"area":"대전시/대전광역시","type":"MOTEL","address":"대전 유성구 봉명동 440-26"}
{"index":{"_index":"hotel", "_id":"967"}}
{"name":"주안 프로포즈","location": {"lon": 126.6825172, "lat": 37.46257338},"area":"인천시/인천광역시","type":"MOTEL","address":"인천 남구 주안동 147-12"}
{"index":{"_index":"hotel", "_id":"968"}}
{"name":"목포 MU","location": {"lon": 126.43268970000001, "lat": 34.8062393},"area":"전남/전라남도/전라도","type":"MOTEL","address":"전남 목포시 옥암동 1012-5"}
{"index":{"_index":"hotel", "_id":"969"}}
{"name":"전주 뷰티","location": {"lon": 127.13191470000001, "lat": 35.83666281},"area":"전북/전라북도/전라도","type":"MOTEL","address":"전북 전주시 덕진구 금암동 474-1"}
{"index":{"_index":"hotel", "_id":"970"}}
{"name":"전주 쉐르빌","location": {"lon": 127.17430549999999, "lat": 35.83049467},"area":"전북/전라북도/전라도","type":"MOTEL","address":"전북 전주시 덕진구 우아동2가 931-11"}
{"index":{"_index":"hotel", "_id":"971"}}
{"name":"서면 G7","location": {"lon": 129.0609052, "lat": 35.14915607},"area":"부산시/부산광역시","type":"MOTEL","address":"부산 부산진구 범천동 858-17"}
{"index":{"_index":"hotel", "_id":"972"}}
{"name":"서면 M2","location": {"lon": 129.05704120000001, "lat": 35.15239385},"area":"부산시/부산광역시","type":"MOTEL","address":"부산 부산진구 부전동 522-26"}
{"index":{"_index":"hotel", "_id":"973"}}
{"name":"전주 MIX","location": {"lon": 127.1743892, "lat": 35.83033593},"area":"전북/전라북도/전라도","type":"MOTEL","address":"전북 전주시 덕진구 우아동2가 931-12"}
{"index":{"_index":"hotel", "_id":"974"}}
{"name":"익산 A무인텔","location": {"lon": 126.9478422, "lat": 35.93149585},"area":"전북/전라북도/전라도","type":"MOTEL","address":"전북 익산시 인화동1가 171-9"}
{"index":{"_index":"hotel", "_id":"975"}}
{"name":"익산 비타민","location": {"lon": 126.95456770000001, "lat": 35.92922023},"area":"전북/전라북도/전라도","type":"MOTEL","address":"전북 익산시 인화동2가 97-1"}
{"index":{"_index":"hotel", "_id":"976"}}
{"name":"익산 테마21","location": {"lon": 126.95020990000002, "lat": 35.93028918},"area":"전북/전라북도/전라도","type":"MOTEL","address":"전북 익산시 인화동1가 184-2"}
{"index":{"_index":"hotel", "_id":"977"}}
{"name":"용산 코지","location": {"lon": 126.97009150000001, "lat": 37.53032649},"area":"서울시/서울특별시","type":"MOTEL","address":"서울 용산구 한강로2가  122-6"}
{"index":{"_index":"hotel", "_id":"978"}}
{"name":"은평 호텔 갤러리","location": {"lon": 126.92576100000001, "lat": 37.60277944},"area":"서울시/서울특별시","type":"MOTEL","address":"서울 은평구 녹번동 155-40"}
{"index":{"_index":"hotel", "_id":"979"}}
{"name":"은평 M&A","location": {"lon": 126.92997199999999, "lat": 37.60951781},"area":"서울시/서울특별시","type":"MOTEL","address":"서울 은평구 대조동 15-174"}
{"index":{"_index":"hotel", "_id":"980"}}
{"name":"성신여대 M","location": {"lon": 127.01739679999999, "lat": 37.59355373},"area":"서울시/서울특별시","type":"MOTEL","address":"서울 성북구 동선동4가 101"}
{"index":{"_index":"hotel", "_id":"981"}}
{"name":"종로 부티크 호텔K","location": {"lon": 126.9882594, "lat": 37.56928526},"area":"서울시/서울특별시","type":"MOTEL","address":"서울 종로구 관철동 21"}
{"index":{"_index":"hotel", "_id":"982"}}
{"name":"진주 셀프","location": {"lon": 128.0900403, "lat": 35.18280942},"area":"경남/경상남도/경상도","type":"MOTEL","address":"경남 진주시 칠암동 513-10"}
{"index":{"_index":"hotel", "_id":"983"}}
{"name":"순천 WE","location": {"lon": 127.54807749999999, "lat": 34.9356442},"area":"전남/전라남도/전라도","type":"MOTEL","address":"전남 순천시 해룡면 신대리 1975-2"}
{"index":{"_index":"hotel", "_id":"984"}}
{"name":"경주 에쿠스","location": {"lon": 129.2064688, "lat": 35.84546265},"area":"경북/경상북도/경상도","type":"MOTEL","address":"경북 경주시 성건동 211-3"}
{"index":{"_index":"hotel", "_id":"985"}}
{"name":"청주 갤러리","location": {"lon": 127.4323297, "lat": 36.62391237},"area":"충북/충청북도/충청도","type":"MOTEL","address":"충북 청주시 흥덕구 가경동 1455-2"}
{"index":{"_index":"hotel", "_id":"986"}}
{"name":"청주 SHOW호텔","location": {"lon": 127.43021840000002, "lat": 36.62863474},"area":"충북/충청북도/충청도","type":"MOTEL","address":"충북 청주시 흥덕구 가경동 1030"}
{"index":{"_index":"hotel", "_id":"987"}}
{"name":"부천 오렌지","location": {"lon": 126.7789446, "lat": 37.4851381},"area":"경기도","type":"MOTEL","address":"경기 부천시 원미구 심곡동 390-1"}
{"index":{"_index":"hotel", "_id":"988"}}
{"name":"경주 N","location": {"lon": 129.2076367, "lat": 35.84064402},"area":"경북/경상북도/경상도","type":"MOTEL","address":"경북 경주시 노서동 119-1"}
{"index":{"_index":"hotel", "_id":"989"}}
{"name":"대전 JAVA","location": {"lon": 127.4215837, "lat": 36.32886599},"area":"대전시/대전광역시","type":"MOTEL","address":"대전 중구 선화동 236-20"}
{"index":{"_index":"hotel", "_id":"990"}}
{"name":"익산 트윈스","location": {"lon": 126.95122020000001, "lat": 35.93082314},"area":"전북/전라북도/전라도","type":"MOTEL","address":"전북 익산시 인화동1가 132-10"}
{"index":{"_index":"hotel", "_id":"991"}}
{"name":"목포 몰디브","location": {"lon": 126.4327254, "lat": 34.80548229},"area":"전남/전라남도/전라도","type":"MOTEL","address":"전남 목포시 옥암동 1014-5"}
{"index":{"_index":"hotel", "_id":"992"}}
{"name":"광주 티파니","location": {"lon": 126.8532105, "lat": 35.22110572},"area":"광주시/광주광역시","type":"MOTEL","address":"광주 북구 오룡동 1114-3"}
{"index":{"_index":"hotel", "_id":"993"}}
{"name":"김포 뮤즈","location": {"lon": 126.71239779999999, "lat": 37.62536623},"area":"경기도","type":"MOTEL","address":"경기 김포시 북변동 403-2"}
{"index":{"_index":"hotel", "_id":"994"}}
{"name":"서울대 담","location": {"lon": 126.95354180000001, "lat": 37.4796522},"area":"서울시/서울특별시","type":"MOTEL","address":"서울 관악구 봉천동 1599-6"}
{"index":{"_index":"hotel", "_id":"995"}}
{"name":"안양 씨엘","location": {"lon": 126.9224564, "lat": 37.39956808},"area":"경기도","type":"MOTEL","address":"경기 안양시 만안구 안양동 674-240"}
{"index":{"_index":"hotel", "_id":"996"}}
{"name":"부천 호텔아이","location": {"lon": 126.78085890000001, "lat": 37.4847236},"area":"경기도","type":"MOTEL","address":"경기 부천시 원미구 심곡동 386-2"}
{"index":{"_index":"hotel", "_id":"997"}}
{"name":"경산 W굿타임","location": {"lon": 128.7250024, "lat": 35.8283555},"area":"경북/경상북도/경상도","type":"MOTEL","address":"경북 경산시 옥산동 728-3"}
{"index":{"_index":"hotel", "_id":"998"}}
{"name":"부평 피아노","location": {"lon": 126.72705819999999, "lat": 37.49198539},"area":"인천시/인천광역시","type":"MOTEL","address":"인천 부평구 부평동 587-1"}
{"index":{"_index":"hotel", "_id":"999"}}
{"name":"부평 T1","location": {"lon": 126.7218291, "lat": 37.49209573},"area":"인천시/인천광역시","type":"MOTEL","address":"인천 부평구 부평동 546-104"}
